{"data":[{"ID":1,"Zone":"Bijloke-Watersportbaan","Adres":"Roderoestraat 27","Eigenaar_naam":"Rammaut Myriam","Eigenaar_telefoon":"0477 78 93 49","Eigenaar_email":"vanhove.myriam@telenet.be","Kamers":null,"Min_prijs":"680","Max_prijs":"680","Type":"Appartement","Lat":"51.0483807","Long":"3.7105117999999493"},{"ID":2,"Zone":"Bijloke-Watersportbaan","Adres":"Ekkergemstraat 145","Eigenaar_naam":"Vermeulen Gody","Eigenaar_telefoon":"0496\/23 40 71","Eigenaar_email":"gody.deschodt@telenet.be","Kamers":"11","Min_prijs":"387","Max_prijs":"387","Type":"Kamer","Lat":"51.05123709999999","Long":"3.7057033999999476"},{"ID":3,"Zone":"Bijloke-Watersportbaan","Adres":"Ekkergemstraat 147","Eigenaar_naam":"Vermeulen Gody","Eigenaar_telefoon":"0496\/23 40 71","Eigenaar_email":"gody.deschodt@telenet.be","Kamers":"8","Min_prijs":"380","Max_prijs":"380","Type":"Kamer","Lat":"51.0511984","Long":"3.7056402000000617"},{"ID":4,"Zone":"Bijloke-Watersportbaan","Adres":"Korenbloemstraat 35","Eigenaar_naam":"Audenaert - De Coninck","Eigenaar_telefoon":"09\/378 16 36 - 0496 71 11 21","Eigenaar_email":"marnix.audenaert2@telenet.be","Kamers":"4","Min_prijs":"330","Max_prijs":"330","Type":"Kamer","Lat":"51.0526782","Long":"3.7061413999999786"},{"ID":5,"Zone":"Bijloke-Watersportbaan","Adres":"Krijgsgasthuisstraat 1","Eigenaar_naam":"De Baere Peter","Eigenaar_telefoon":"0485\/58 55 69","Eigenaar_email":"peter.de.baere@telenet.be","Kamers":"6","Min_prijs":"280","Max_prijs":"280","Type":"Kamer","Lat":"51.0508787","Long":"3.7043079000000034"},{"ID":6,"Zone":"Bijloke-Watersportbaan","Adres":"Krijgsgasthuisstraat 150","Eigenaar_naam":"Van der Meersche Eric","Eigenaar_telefoon":"09\/369 99 99 en 0477\/44 27 44","Eigenaar_email":"vergeylengaetane@skynet.be","Kamers":"5","Min_prijs":"275","Max_prijs":"275","Type":"Kamer","Lat":"51.0529689","Long":"3.70274900000004"},{"ID":7,"Zone":"Bijloke-Watersportbaan","Adres":"Pijlstraat 19 - 21","Eigenaar_naam":"VDV","Eigenaar_telefoon":"0485858665","Eigenaar_email":"Vandevenderycker@hotmail.com","Kamers":"6","Min_prijs":"315","Max_prijs":"315","Type":"Kamer","Lat":"51.0528481","Long":"3.705209400000058"},{"ID":8,"Zone":"Bijloke-Watersportbaan","Adres":"Raas van Gaverestraat 57","Eigenaar_naam":"CV Gent Eurimmo","Eigenaar_telefoon":"09 221 31 12","Eigenaar_email":"info@eurimmo.be","Kamers":"8","Min_prijs":"345","Max_prijs":"345","Type":"Kamer","Lat":"51.0508049","Long":"3.7082966000000397"},{"ID":9,"Zone":"Bijloke-Watersportbaan","Adres":"Roderoestraat 27","Eigenaar_naam":"Rammaut Myriam","Eigenaar_telefoon":"0477\/78 93 49","Eigenaar_email":"vanhove.myriam@telenet.be","Kamers":"12","Min_prijs":"340","Max_prijs":"340","Type":"Kamer","Lat":"51.0483807","Long":"3.7105117999999493"},{"ID":10,"Zone":"Bijloke-Watersportbaan","Adres":"Spiegelhofstraat 19","Eigenaar_naam":"Vermeulen Gody","Eigenaar_telefoon":"0496\/23 40 71","Eigenaar_email":"gody.deschodt@telenet.be","Kamers":"6","Min_prijs":"382","Max_prijs":"382","Type":"Kamer","Lat":"51.0525308","Long":"3.704164999999989"},{"ID":11,"Zone":"Bijloke-Watersportbaan","Adres":"Spiegelhofstraat 34","Eigenaar_naam":"Van Rie Joris","Eigenaar_telefoon":"0473 33 94 91","Eigenaar_email":"joris.van.rie@telenet.be","Kamers":"6","Min_prijs":"285","Max_prijs":"285","Type":"Kamer","Lat":"51.0529044","Long":"3.7037864999999783"},{"ID":12,"Zone":"Bijloke-Watersportbaan","Adres":"Spiegelhofstraat 50","Eigenaar_naam":"Van De Steene Frans","Eigenaar_telefoon":"0474 95 86 71 of 0474 69 27 04","Eigenaar_email":"frans.vandesteene@gmail.com","Kamers":"5","Min_prijs":"250","Max_prijs":"250","Type":"Kamer","Lat":"51.0531796","Long":"3.7035042999999632"},{"ID":13,"Zone":"Bijloke-Watersportbaan","Adres":"Krijgsgasthuisstraat 41 - 43","Eigenaar_naam":"CV Gent Eurimmo","Eigenaar_telefoon":"09 221 31 12","Eigenaar_email":"info@eurimmo.be","Kamers":null,"Min_prijs":"575","Max_prijs":"575","Type":"Studio","Lat":"51.0512207","Long":"3.7039177000000336"},{"ID":14,"Zone":"Bijloke-Watersportbaan","Adres":"Raas van Gaverestraat 3","Eigenaar_naam":"CV Gent Eurimmo - De Wulf An","Eigenaar_telefoon":"09 221 31 12","Eigenaar_email":"info@eurimmo.be","Kamers":"8","Min_prijs":"395","Max_prijs":"395","Type":"Studio","Lat":"51.0506151","Long":"3.7096698000000288"},{"ID":15,"Zone":"Bijloke-Watersportbaan","Adres":"Roderoestraat 27","Eigenaar_naam":"Rammaut Myriam","Eigenaar_telefoon":"0477\/78 93 49","Eigenaar_email":"vanhove.myriam@telenet.be","Kamers":"12","Min_prijs":"510","Max_prijs":"510","Type":"Studio","Lat":"51.0483807","Long":"3.7105117999999493"},{"ID":16,"Zone":"Brugse Poort","Adres":"Elfnovemberstraat 15","Eigenaar_naam":"Verpoest Frank","Eigenaar_telefoon":"0474\/28 96 34","Eigenaar_email":"frank.verpoest@telenet.be","Kamers":"5","Min_prijs":"176","Max_prijs":"176","Type":"Kamer","Lat":"51.0725272","Long":"3.6792861999999786"},{"ID":17,"Zone":"Brugse Poort","Adres":"Goudensterstraat 40","Eigenaar_naam":"Lieven De Schrijver","Eigenaar_telefoon":"0473 53 17 23","Eigenaar_email":"lievendeschrijver@yahoo.com","Kamers":"3","Min_prijs":"300","Max_prijs":"300","Type":"Kamer","Lat":"51.0594838","Long":"3.7058581000000004"},{"ID":18,"Zone":"Brugse Poort","Adres":"Kaarderijstraat 1 Bus A","Eigenaar_naam":"Lafaut Guido","Eigenaar_telefoon":"051 46 52 25 of 0474 27 81 80","Eigenaar_email":"guido.lafaut@skynet.be","Kamers":"12","Min_prijs":"260","Max_prijs":"260","Type":"Kamer","Lat":"51.0562818","Long":"3.6961588000000347"},{"ID":19,"Zone":"Brugse Poort","Adres":"Reinaertstraat 110","Eigenaar_naam":"Van Melckebeke Christine","Eigenaar_telefoon":"0479 59 92 33","Eigenaar_email":"vanmelckebeke@hotmail.com","Kamers":"12","Min_prijs":"215","Max_prijs":"215","Type":"Kamer","Lat":"51.058264","Long":"3.6999389000000065"},{"ID":20,"Zone":"Brugse Poort","Adres":"Rooigemlaan 214","Eigenaar_naam":"Van Den Bergh Anke","Eigenaar_telefoon":"0474 65 80 80","Eigenaar_email":"anke@trigon-beheer.be","Kamers":"7","Min_prijs":"195","Max_prijs":"195","Type":"Kamer","Lat":"51.05858079999999","Long":"3.6930972999999767"},{"ID":21,"Zone":"Brugse Poort","Adres":"Vlasgaardstraat 60","Eigenaar_naam":"Bram Lambrecht","Eigenaar_telefoon":"0474 74 67 07","Eigenaar_email":"bram@dehuysmaeckelaer.be","Kamers":null,"Min_prijs":"300","Max_prijs":"420","Type":"Kamer","Lat":"51.056348","Long":"3.7011373000000276"},{"ID":22,"Zone":"Brugse Poort","Adres":"Zuidkaai 10 A","Eigenaar_naam":"Vulsteke Carl","Eigenaar_telefoon":"051\/72 59 84 of 0494\/63 13 47","Eigenaar_email":"carlvulsteke@hotmail.com","Kamers":"5","Min_prijs":"325","Max_prijs":"325","Type":"Studio","Lat":"51.0583435","Long":"3.7066469999999754"},{"ID":23,"Zone":"Brugse Poort","Adres":"Lobeliastraat 42","Eigenaar_naam":"Van Oost-Van Herreweghe","Eigenaar_telefoon":"09\/230 12 24 (en fax) of 0477\/17 05 04","Eigenaar_email":"","Kamers":"2","Min_prijs":"530","Max_prijs":"530","Type":"Woning","Lat":"51.0637908","Long":"3.6992812999999387"},{"ID":24,"Zone":"Gentbrugge","Adres":"Brusselsesteenweg 370","Eigenaar_naam":"Vandenberghe Thierry","Eigenaar_telefoon":"056\/51 70 18 en 0477\/74 89 22","Eigenaar_email":"Thierry.vandenberghe@telenet.be","Kamers":"4","Min_prijs":"275","Max_prijs":"275","Type":"Studio","Lat":"51.0398353","Long":"3.7444428999999673"},{"ID":25,"Zone":"Heirnis","Adres":"Slachthuisstraat 62","Eigenaar_naam":"Quaza Projects BVBA","Eigenaar_telefoon":"0476 33 19 77","Eigenaar_email":"aquarota@telenet.be","Kamers":null,"Min_prijs":"630","Max_prijs":"630","Type":"Appartement","Lat":"51.0528005","Long":"3.737576900000022"},{"ID":26,"Zone":"Heirnis","Adres":"Vlaamsekaai 76","Eigenaar_naam":"Dierick Kathleen","Eigenaar_telefoon":"09 234 15 28 of 0476 \/ 53 95 76","Eigenaar_email":"kdierick@gmail.com","Kamers":null,"Min_prijs":"870","Max_prijs":"870","Type":"Appartement","Lat":"51.0448764","Long":"3.7428864999999405"},{"ID":27,"Zone":"Heirnis","Adres":"Forelstraat 30","Eigenaar_naam":"Verbeke Wim","Eigenaar_telefoon":"0486 76 73 14","Eigenaar_email":"wim.verbeke12@telenet.be","Kamers":"8","Min_prijs":"250","Max_prijs":"250","Type":"Kamer","Lat":"51.0476197","Long":"3.740793499999995"},{"ID":28,"Zone":"Heirnis","Adres":"Puinstraat 44","Eigenaar_naam":"Henckens Lieve","Eigenaar_telefoon":"0479\/34 02 69","Eigenaar_email":"lieve.henckens@skynet.be","Kamers":"8","Min_prijs":"325","Max_prijs":"325","Type":"Kamer","Lat":"51.0523099","Long":"3.737955800000009"},{"ID":29,"Zone":"Heirnis","Adres":"Karperstraat 43","Eigenaar_naam":"Debaere Bogaert Serge","Eigenaar_telefoon":"0477 20 98 82","Eigenaar_email":"serge.debaere@skynet.be","Kamers":null,"Min_prijs":"400","Max_prijs":"400","Type":"Studio","Lat":"51.0467361","Long":"3.7418566000000055"},{"ID":30,"Zone":"Heirnis","Adres":"Puinstraat 44","Eigenaar_naam":"Henckens Lieve","Eigenaar_telefoon":"0479\/34 02 69","Eigenaar_email":"lieve.henckens@skynet.be","Kamers":"8","Min_prijs":"430","Max_prijs":"430","Type":"Studio","Lat":"51.0523099","Long":"3.737955800000009"},{"ID":31,"Zone":"Heirnis","Adres":"Scheldestraat 28","Eigenaar_naam":"Lauwers Herwig","Eigenaar_telefoon":"0498 49 31 65","Eigenaar_email":"herwiglauwers@hotmail.com","Kamers":null,"Min_prijs":"600","Max_prijs":"600","Type":"Studio","Lat":"51.0516322","Long":"3.7494815999999673"},{"ID":32,"Zone":"Heirnis","Adres":"Slachthuisstraat 68","Eigenaar_naam":"Vandewalle Fernand","Eigenaar_telefoon":"050 386592","Eigenaar_email":"fernand.vandewalle@belgacom.net","Kamers":null,"Min_prijs":"350","Max_prijs":"350","Type":"Studio","Lat":"51.0528274","Long":"3.737726299999963"},{"ID":33,"Zone":"Korenmarkt","Adres":"Baudelostraat 25","Eigenaar_naam":"Vermeulen Inge","Eigenaar_telefoon":"0496 23 40 71 of 0496 20 04 90","Eigenaar_email":"vermeulen.inge@hotmail.com","Kamers":null,"Min_prijs":"750","Max_prijs":"750","Type":"Appartement","Lat":"51.0578954","Long":"3.7271580000000313"},{"ID":34,"Zone":"Korenmarkt","Adres":"Sint-Katelijnestraat 6","Eigenaar_naam":"Dhaene Jenny","Eigenaar_telefoon":"0498 40 42 54","Eigenaar_email":"sk6@bvbajdb.be","Kamers":null,"Min_prijs":"720","Max_prijs":"720","Type":"Appartement","Lat":"51.0588522","Long":"3.728285899999946"},{"ID":35,"Zone":"Korenmarkt","Adres":"Barrestraat 17","Eigenaar_naam":"Vande Kerckhove F.","Eigenaar_telefoon":"09\/231 14 88","Eigenaar_email":"","Kamers":"7","Min_prijs":"235","Max_prijs":"235","Type":"Kamer","Lat":"51.0537721","Long":" 3.729721100000006"},{"ID":36,"Zone":"Korenmarkt","Adres":"Barrestraat 2-4-6","Eigenaar_naam":"Van Den Bossche Ann","Eigenaar_telefoon":"053\/62 36 08 of 0495\/57 51 83","Eigenaar_email":"ann@vandenbossche-alu-pvc.be","Kamers":"13","Min_prijs":"370","Max_prijs":"370","Type":"Kamer","Lat":"51.0539873","Long":"3.729264100000023"},{"ID":37,"Zone":"Korenmarkt","Adres":"Baudelostraat 65","Eigenaar_naam":"Bleyenberg Myriam","Eigenaar_telefoon":"0475\/645 013","Eigenaar_email":"","Kamers":"9","Min_prijs":"325","Max_prijs":"325","Type":"Kamer","Lat":"51.0584844","Long":"3.728969300000017"},{"ID":38,"Zone":"Korenmarkt","Adres":"Gelukstraat 31","Eigenaar_naam":"De Saedeleer Luc","Eigenaar_telefoon":"+32497 63 38 28","Eigenaar_email":"BeluikOranjeboom@gmail.com","Kamers":null,"Min_prijs":"305","Max_prijs":"305","Type":"Kamer","Lat":"51.05877880000001","Long":"3.7285228000000643"},{"ID":39,"Zone":"Korenmarkt","Adres":"Gelukstraat 39B","Eigenaar_naam":"De Saedeleer Luc","Eigenaar_telefoon":"+32497 63 38 28","Eigenaar_email":"BeluikOranjeboom@gmail.com","Kamers":null,"Min_prijs":"305","Max_prijs":"305","Type":"Kamer","Lat":"51.0588463","Long":"3.7287255999999616"},{"ID":40,"Zone":"Korenmarkt","Adres":"Goudstraat 23","Eigenaar_naam":"Bleyenberg Myriam","Eigenaar_telefoon":"0475\/64 50 13","Eigenaar_email":"","Kamers":"7","Min_prijs":"325","Max_prijs":"325","Type":"Kamer","Lat":"51.0595183","Long":"3.727628999999979"},{"ID":41,"Zone":"Korenmarkt","Adres":"Hoogpoort 14 - 20","Eigenaar_naam":"Colpaert","Eigenaar_telefoon":null,"Eigenaar_email":"els.colpaert3@telenet.be","Kamers":"18","Min_prijs":"255","Max_prijs":"380","Type":"Kamer","Lat":"51.0556218","Long":"3.7229197999999997"},{"ID":42,"Zone":"Korenmarkt","Adres":"Oude Beestenmarkt 9","Eigenaar_naam":"Hanssens Hilde","Eigenaar_telefoon":"0476 39 89 18","Eigenaar_email":"hilde.hanssens@edpnet.be","Kamers":"6","Min_prijs":"280","Max_prijs":"280","Type":"Kamer","Lat":"51.0543242","Long":"3.7318815999999515"},{"ID":43,"Zone":"Korenmarkt","Adres":"Penitentenstraat 1","Eigenaar_naam":"De Roe-Schmid","Eigenaar_telefoon":"055\/42 65 66 en 0485\/61 47 80","Eigenaar_email":"sigridschmid@deroe.be","Kamers":"8","Min_prijs":"395","Max_prijs":"395","Type":"Kamer","Lat":"51.0583541","Long":"3.7263878999999633"},{"ID":44,"Zone":"Korenmarkt","Adres":"Sint-Katelijnestraat 6","Eigenaar_naam":"Dhaene Jenny","Eigenaar_telefoon":"0498 40 42 54","Eigenaar_email":"sk6@bvbajdb.be","Kamers":null,"Min_prijs":"320","Max_prijs":"320","Type":"Kamer","Lat":"51.0588522","Long":"3.728285899999946"},{"ID":45,"Zone":"Korenmarkt","Adres":"Baudelostraat 22","Eigenaar_naam":"De Beer - Vanoverschelde","Eigenaar_telefoon":"0497-627944","Eigenaar_email":"baudelo20@gmail.com","Kamers":null,"Min_prijs":"465","Max_prijs":"465","Type":"Studio","Lat":"51.0577652","Long":"3.7268433000000414"},{"ID":46,"Zone":"Korenmarkt","Adres":"Baudelostraat 25","Eigenaar_naam":"Vermeulen Inge","Eigenaar_telefoon":"0496\/200 490","Eigenaar_email":"vermeulen.inge@hotmail.com","Kamers":null,"Min_prijs":"385","Max_prijs":"385","Type":"Studio","Lat":"51.0578954","Long":"3.7271580000000313"},{"ID":47,"Zone":"Korenmarkt","Adres":"Brabantdam 40","Eigenaar_naam":"Ceuterick Geert","Eigenaar_telefoon":"0476\/911 506 (tot 19.00hr)","Eigenaar_email":"ceuterick.gent@telenet.be (BIJ VOORKEUR)","Kamers":null,"Min_prijs":"340","Max_prijs":"340","Type":"Studio","Lat":"51.050518","Long":"3.728305399999954"},{"ID":48,"Zone":"Korenmarkt","Adres":"Houtbriel 5","Eigenaar_naam":"Seynhave Maria","Eigenaar_telefoon":"059\/50 38 82","Eigenaar_email":"maria.seynhave@pandora.be","Kamers":"5","Min_prijs":"410","Max_prijs":"410","Type":"Studio","Lat":"51.0556973","Long":"3.7292962000000216"},{"ID":49,"Zone":"Korenmarkt","Adres":"Oudevest 11 - 13","Eigenaar_naam":"Blancquaert Viviane","Eigenaar_telefoon":"0486 69 15 31 (tot 21u)","Eigenaar_email":"conducta@online.be","Kamers":null,"Min_prijs":"500","Max_prijs":"500","Type":"Studio","Lat":"51.0589293","Long":"3.7296152999999777"},{"ID":50,"Zone":"Korenmarkt","Adres":"Sint-Jacobsnieuwstraat 119","Eigenaar_naam":"Balcaen J.","Eigenaar_telefoon":"09 231 05 46 of 0473 86 07 45","Eigenaar_email":"","Kamers":"11","Min_prijs":"400","Max_prijs":"400","Type":"Studio","Lat":"51.05418659999999","Long":"3.730584799999974"},{"ID":51,"Zone":"Korenmarkt","Adres":"Sint-Jansvest 14 - 16","Eigenaar_naam":"Dejaegher Geert","Eigenaar_telefoon":"09\/222 00 00","Eigenaar_email":"gent@dejaegher.com","Kamers":"10","Min_prijs":"420","Max_prijs":"420","Type":"Studio","Lat":"51.0498048","Long":"3.72663179999995"},{"ID":52,"Zone":"Korenmarkt","Adres":"Volmolenstraat 33","Eigenaar_naam":"Van Driessche Martin & Greet","Eigenaar_telefoon":"0475 96 09 06","Eigenaar_email":"tuinenvandriessche@telenet.be","Kamers":null,"Min_prijs":"285","Max_prijs":"285","Type":"Studio","Lat":"51.05527499999999","Long":"3.7331839999999374"},{"ID":53,"Zone":"Ledeberg","Adres":"Langestraat 45","Eigenaar_naam":"Debussche Dirk","Eigenaar_telefoon":"09\/231 92 60 - 0474\/981758","Eigenaar_email":"dirkdebussche@skynet.be","Kamers":"4","Min_prijs":"200","Max_prijs":"200","Type":"Kamer","Lat":"51.03793880000001","Long":"3.744668700000034"},{"ID":54,"Zone":"Ledeberg","Adres":"Lieven Delaruyestraat 31","Eigenaar_naam":"Smet Hans","Eigenaar_telefoon":"09 227 26 22","Eigenaar_email":"","Kamers":null,"Min_prijs":"340","Max_prijs":"340","Type":"Kamer","Lat":"51.0402417","Long":"3.7473843000000215"},{"ID":55,"Zone":"Ledeberg","Adres":"Louis Van Houttestraat 99","Eigenaar_naam":"Coddens Marc","Eigenaar_telefoon":"09\/374.40.55","Eigenaar_email":"marcenbea@hotmail.com","Kamers":"6","Min_prijs":"220","Max_prijs":"220","Type":"Kamer","Lat":"51.0414396","Long":"3.7446603999999297"},{"ID":56,"Zone":"Ledeberg","Adres":"Van den Heckestraat 109","Eigenaar_naam":"Eeckhout-Daem Guy & Agnes","Eigenaar_telefoon":"054 50 33 70 of 0499 24 01 49","Eigenaar_email":"guyeeckhout@hotmail.com","Kamers":null,"Min_prijs":"230","Max_prijs":"230","Type":"Kamer","Lat":"51.0350274","Long":"3.746219999999994"},{"ID":57,"Zone":"Ledeganck","Adres":"Herfststraat 3","Eigenaar_naam":"Goeman Alois","Eigenaar_telefoon":"0485\/82 82 00","Eigenaar_email":"alois.goeman@telenet.be","Kamers":null,"Min_prijs":"261","Max_prijs":"261","Type":"Kamer","Lat":"51.0347552","Long":"3.7275750000000016"},{"ID":58,"Zone":"Ledeganck","Adres":"Kraaistraat 47","Eigenaar_naam":"De Wannemaeker No\u00ebl","Eigenaar_telefoon":"053\/62 66 09 of 0479\/556 435","Eigenaar_email":"birn@skynet.be","Kamers":"6","Min_prijs":"240","Max_prijs":"240","Type":"Kamer","Lat":"51.0357851","Long":"3.724413400000003"},{"ID":59,"Zone":"Ledeganck","Adres":"Lucas de Heerestraat 98","Eigenaar_naam":"Emma Mestdagh","Eigenaar_telefoon":"0486 18 78 78 of 050 38 55 50","Eigenaar_email":"jozef.van.baelen@telenet.be","Kamers":"14","Min_prijs":"210","Max_prijs":"210","Type":"Kamer","Lat":"51.0336266","Long":"3.7223348999999644"},{"ID":60,"Zone":"Ledeganck","Adres":"Monterreystraat 62","Eigenaar_naam":"Maryns Patrick","Eigenaar_telefoon":"050\/31 31 05 en 0475\/613 942","Eigenaar_email":"","Kamers":null,"Min_prijs":"280","Max_prijs":"280","Type":"Kamer","Lat":"51.033957","Long":"3.722412800000029"},{"ID":61,"Zone":"Ledeganck","Adres":"Ottergemsesteenweg 15","Eigenaar_naam":"Van der Mynsbrugge Frank","Eigenaar_telefoon":"0475 67 39 19","Eigenaar_email":"anframo.nv@gmail.com","Kamers":"6","Min_prijs":"385","Max_prijs":"385","Type":"Kamer","Lat":"51.0371171","Long":"3.7271433999999317"},{"ID":62,"Zone":"Ledeganck","Adres":"Sint-Coletastraat 12","Eigenaar_naam":"Vincent Sonja","Eigenaar_telefoon":"0475 41 48 44","Eigenaar_email":"","Kamers":"7","Min_prijs":"300","Max_prijs":"300","Type":"Kamer","Lat":"51.03458310000001","Long":"3.7262673000000177"},{"ID":63,"Zone":"Ledeganck","Adres":"Stropkaai 5","Eigenaar_naam":"Baudewijn Martine","Eigenaar_telefoon":"0486\/497 856","Eigenaar_email":"martine.baudewyn1@telenet.be","Kamers":"9","Min_prijs":"300","Max_prijs":"300","Type":"Kamer","Lat":"51.0380847","Long":"3.7296241000000236"},{"ID":64,"Zone":"Ledeganck","Adres":"Stropstraat 156 - 158","Eigenaar_naam":"Van Hecke Patrick - Van Kerckvoo","Eigenaar_telefoon":"09 372 06 39 of 0496 28 14 47 of 0478 40 58 71","Eigenaar_email":"geert.vankerckvoorde@skynet.be","Kamers":"8","Min_prijs":"330","Max_prijs":"330","Type":"Kamer","Lat":"51.033027","Long":"3.730659400000036"},{"ID":65,"Zone":"Ledeganck","Adres":"Stropstraat 160","Eigenaar_naam":"Van Nevel Bernard","Eigenaar_telefoon":"0477\/61 56 88","Eigenaar_email":"bernard.vannevel@me.com","Kamers":"6","Min_prijs":"250","Max_prijs":"250","Type":"Kamer","Lat":"51.03289359999999","Long":"3.7305244000000357"},{"ID":66,"Zone":"Ledeganck","Adres":"Stropstraat 162","Eigenaar_naam":"Van Nevel Bernard","Eigenaar_telefoon":"0477\/61 56 88","Eigenaar_email":"bernard.vannevel@skynet.be","Kamers":"5","Min_prijs":"250","Max_prijs":"250","Type":"Kamer","Lat":"51.0328829","Long":"3.730492199999958"},{"ID":67,"Zone":"Ledeganck","Adres":"Stropstraat 164","Eigenaar_naam":"Van Nevel Bernard","Eigenaar_telefoon":"0477\/61 56 88","Eigenaar_email":"bernard.vannevel@skynet.be","Kamers":"6","Min_prijs":"250","Max_prijs":"250","Type":"Kamer","Lat":"51.0328688","Long":"3.730446000000029"},{"ID":68,"Zone":"Ledeganck","Adres":"Victoriastraat 11","Eigenaar_naam":"Vulsteke Trees","Eigenaar_telefoon":"051 56 91 52 of 0497 73 16 24","Eigenaar_email":"treesvulsteke@hotmail.com","Kamers":"8","Min_prijs":"200","Max_prijs":"200","Type":"Kamer","Lat":"51.0349428","Long":"3.7243012000000135"},{"ID":69,"Zone":"Ledeganck","Adres":"Zwijnaardsesteenweg 123","Eigenaar_naam":"Van De Casteele Koen","Eigenaar_telefoon":"09 221 65 15","Eigenaar_email":"kvdc2247@hotmail.com","Kamers":"8","Min_prijs":"260","Max_prijs":"260","Type":"Kamer","Lat":"51.0339648","Long":"3.725387899999987"},{"ID":70,"Zone":"Ledeganck","Adres":"Zwijnaardsesteenweg 62","Eigenaar_naam":"Tavernier Lucien","Eigenaar_telefoon":"0479\/82 53 52 en 0479\/70 88 97","Eigenaar_email":"annicktavernier@hotmail.com","Kamers":"11","Min_prijs":"295","Max_prijs":"295","Type":"Kamer","Lat":"51.03494449999999","Long":"3.7257700000000114"},{"ID":71,"Zone":"Ledeganck","Adres":"Burggravenlaan 265","Eigenaar_naam":"De Groote-Michaux","Eigenaar_telefoon":"0475 41 19 09 of 050 28 18 04","Eigenaar_email":"dgnatalie@hotmail.com","Kamers":null,"Min_prijs":"400","Max_prijs":"400","Type":"Studio","Lat":"51.03171099999999","Long":"3.7276397000000543"},{"ID":72,"Zone":"Ledeganck","Adres":"Kraaistraat 47","Eigenaar_naam":"De Wannemaeker No\u00ebl","Eigenaar_telefoon":"053\/62 66 09 of 0479\/556 435","Eigenaar_email":"birn@skynet.be","Kamers":null,"Min_prijs":"330","Max_prijs":"330","Type":"Studio","Lat":"51.0357851","Long":"3.724413400000003"},{"ID":73,"Zone":"Ledeganck","Adres":"Lucas de Heerestraat 88","Eigenaar_naam":"Maryns Benoit","Eigenaar_telefoon":"0475\/613 942","Eigenaar_email":"","Kamers":null,"Min_prijs":"370","Max_prijs":"370","Type":"Studio","Lat":"51.0337505","Long":"3.722741600000063"},{"ID":74,"Zone":"Ledeganck","Adres":"Monterreystraat 62","Eigenaar_naam":"Maryns Patrick","Eigenaar_telefoon":"050\/31 31 05 en 0475\/613 942","Eigenaar_email":"","Kamers":"6","Min_prijs":"370","Max_prijs":"370","Type":"Studio","Lat":"51.033957","Long":"3.722412800000029"},{"ID":75,"Zone":"Ledeganck","Adres":"Sint-Coletastraat 14 - 16","Eigenaar_naam":"Maryns Benoit","Eigenaar_telefoon":"0475\/613 942","Eigenaar_email":"","Kamers":"5","Min_prijs":"390","Max_prijs":"390","Type":"Studio","Lat":"51.0345957","Long":"3.726350499999967"},{"ID":76,"Zone":"Ledeganck","Adres":"Stropstraat 156 - 158","Eigenaar_naam":"Van Hecke Patrick - Van Kerckvoo","Eigenaar_telefoon":"0496 28 14 47 of 0478 40 58 71","Eigenaar_email":"geert.vankerckvoorde@skynet.be","Kamers":"8","Min_prijs":"605","Max_prijs":"605","Type":"Studio","Lat":"51.033027","Long":"3.730659400000036"},{"ID":77,"Zone":"Ledeganck","Adres":"Stropstraat 164","Eigenaar_naam":"Van Nevel Bernard","Eigenaar_telefoon":"0477\/61 56 88","Eigenaar_email":"bernard.vannevel@skynet.be","Kamers":"6","Min_prijs":"430","Max_prijs":"430","Type":"Studio","Lat":"51.0328688","Long":"3.730446000000029"},{"ID":78,"Zone":"Ledeganck","Adres":"Stropstraat 166","Eigenaar_naam":"Van Nevel Bernard","Eigenaar_telefoon":"0477\/61 56 88","Eigenaar_email":"bernard.vannevel@skynet.be","Kamers":"5","Min_prijs":"340","Max_prijs":"340","Type":"Studio","Lat":"51.0328478","Long":"3.730385399999932"},{"ID":79,"Zone":"Ledeganck","Adres":"Vlierstraat 14","Eigenaar_naam":"Eli Cobbaut","Eigenaar_telefoon":null,"Eigenaar_email":"info@kotgent.com","Kamers":"7","Min_prijs":"380","Max_prijs":"380","Type":"Studio","Lat":"51.0338791","Long":"3.726033799999982"},{"ID":80,"Zone":"Ledeganck","Adres":"Zomerstraat 23","Eigenaar_naam":"Beirnaert Chris","Eigenaar_telefoon":"0477\/77 39 51","Eigenaar_email":"beirnaertc@telenet.be","Kamers":"5","Min_prijs":"390","Max_prijs":"390","Type":"Studio","Lat":"51.0324421","Long":"3.7282396000000517"},{"ID":81,"Zone":"Poel","Adres":"Akkerstraat 76","Eigenaar_naam":"Henckens Lieve","Eigenaar_telefoon":"0479\/34 02 69","Eigenaar_email":"lieve.henckens@skynet.be","Kamers":null,"Min_prijs":"640","Max_prijs":"640","Type":"Appartement","Lat":"51.0552246","Long":"3.7107753999999886"},{"ID":82,"Zone":"Poel","Adres":"Brugsepoortstraat 32","Eigenaar_naam":"Van Duyse - Dhollander","Eigenaar_telefoon":"03 779 85 58 of 0486 11 06 06","Eigenaar_email":"henriette.praet@skynet.be","Kamers":null,"Min_prijs":"458","Max_prijs":"458","Type":"Appartement","Lat":"51.0565059","Long":"3.7101175999999896"},{"ID":83,"Zone":"Poel","Adres":"Brugsepoortstraat 36","Eigenaar_naam":"Van Duyse - Dhollander","Eigenaar_telefoon":"03 779 85 58 of 0486 11 06 06","Eigenaar_email":"henriette.praet@skynet.be","Kamers":null,"Min_prijs":"458","Max_prijs":"458","Type":"Appartement","Lat":"51.0565501","Long":"3.710025500000029"},{"ID":84,"Zone":"Poel","Adres":"Coupure 164","Eigenaar_naam":"Van De Velde Dirk","Eigenaar_telefoon":"055 49 70 49 of 0475 56 70 49","Eigenaar_email":"brandbeveiligingvandevelde@pandora.be","Kamers":null,"Min_prijs":"650","Max_prijs":"650","Type":"Appartement","Lat":"51.0483604","Long":"3.713720800000033"},{"ID":85,"Zone":"Poel","Adres":"Abrahamstraat 2","Eigenaar_naam":"Van Laethem Chris","Eigenaar_telefoon":"0478 265 637","Eigenaar_email":"chrisvanlaethem.avl@telenet.be","Kamers":"5","Min_prijs":"325","Max_prijs":"325","Type":"Kamer","Lat":"51.057755","Long":"3.718322599999965"},{"ID":86,"Zone":"Poel","Adres":"Akkerstraat 94","Eigenaar_naam":"Snauwaert","Eigenaar_telefoon":"09\/282 23 12","Eigenaar_email":"machteldle@hotmail.com","Kamers":"6","Min_prijs":"220","Max_prijs":"220","Type":"Kamer","Lat":"51.0554098","Long":"3.709454899999969"},{"ID":87,"Zone":"Poel","Adres":"Begijnengracht 24","Eigenaar_naam":"Vandersteene Jozef","Eigenaar_telefoon":"056 60 46 89 of 0494 72 66 48","Eigenaar_email":"lievedeconcinck@hotmail.com","Kamers":"6","Min_prijs":"300","Max_prijs":"300","Type":"Kamer","Lat":"51.0562486","Long":"3.7133801999999605"},{"ID":88,"Zone":"Poel","Adres":"Brandstraat 12","Eigenaar_naam":"Van De Velde Dirk","Eigenaar_telefoon":"055 49 70 49 of 0475 56 70 49","Eigenaar_email":"brandbeveiligingvandevelde@pandora.be","Kamers":"6","Min_prijs":"250","Max_prijs":"250","Type":"Kamer","Lat":"51.0517187","Long":"3.716392199999973"},{"ID":89,"Zone":"Poel","Adres":"Galgenberg 24","Eigenaar_naam":"De Maesschalck Philip","Eigenaar_telefoon":"052\/450464 of 0486 40 08 40","Eigenaar_email":"demaesschalck.debruyne@telenet.be","Kamers":"5","Min_prijs":"325","Max_prijs":"325","Type":"Kamer","Lat":"51.0504843","Long":"3.7136990000000196"},{"ID":90,"Zone":"Poel","Adres":"Gruuthuusestraat 3","Eigenaar_naam":"van Gele Jean-Marie","Eigenaar_telefoon":"09\/225 53 64 of 0475\/83 42 73","Eigenaar_email":"woodstrip@hotmail.com","Kamers":"56","Min_prijs":"315","Max_prijs":"315","Type":"Kamer","Lat":"51.05507470000001","Long":"3.7194498000000067"},{"ID":91,"Zone":"Poel","Adres":"Holstraat 80","Eigenaar_naam":"Mortier","Eigenaar_telefoon":"09\/225 48 35 of 0478 59 90 85","Eigenaar_email":"","Kamers":null,"Min_prijs":"300","Max_prijs":"420","Type":"Kamer","Lat":"51.0520164","Long":"3.7141537999999628"},{"ID":92,"Zone":"Poel","Adres":"Iepenstraat 57","Eigenaar_naam":"Vermeulen Gody","Eigenaar_telefoon":"0496\/23 40 71","Eigenaar_email":"gody.deschodt@telenet.be","Kamers":"5","Min_prijs":"350","Max_prijs":"350","Type":"Kamer","Lat":"51.0483712","Long":"3.7173294000000396"},{"ID":93,"Zone":"Poel","Adres":"Jan Verspeyenstraat 11","Eigenaar_naam":"De Clercq Lionel","Eigenaar_telefoon":"09 386 32 21 of 0472 75 22 12","Eigenaar_email":"maes@agnesmaes.be","Kamers":"7","Min_prijs":"270","Max_prijs":"290","Type":"Kamer","Lat":"51.058729","Long":"3.711874699999953"},{"ID":94,"Zone":"Poel","Adres":"Jan Verspeyenstraat 5","Eigenaar_naam":"Lambert Paul","Eigenaar_telefoon":"0495 54 40 04","Eigenaar_email":"paullambert@telenet.be","Kamers":"5","Min_prijs":"270","Max_prijs":"270","Type":"Kamer","Lat":"51.05865009999999","Long":"3.7120793999999933"},{"ID":95,"Zone":"Poel","Adres":"Klein Raamhof 1","Eigenaar_naam":"Broeckaert Lydie","Eigenaar_telefoon":"09 362 55 24 of 0479 29 62 16","Eigenaar_email":"lydie.broeckaert@telenet.be","Kamers":"5","Min_prijs":"285","Max_prijs":"285","Type":"Kamer","Lat":"51.0553233","Long":"3.7166557000000466"},{"ID":96,"Zone":"Poel","Adres":"Komijnstraat 18 - 24","Eigenaar_naam":"Dutry Jacqueline","Eigenaar_telefoon":"09\/224 37 45","Eigenaar_email":"j-j.vyncke@pandora.be","Kamers":"4","Min_prijs":"360","Max_prijs":"360","Type":"Kamer","Lat":"51.055791","Long":"3.7152475000000322"},{"ID":97,"Zone":"Poel","Adres":"Komijnstraat 26","Eigenaar_naam":"Keppens Guido","Eigenaar_telefoon":"09 221 62 63 of 0475 57 13 78","Eigenaar_email":"","Kamers":"9","Min_prijs":"280","Max_prijs":"280","Type":"Kamer","Lat":"51.0558303","Long":"3.7150136000000202"},{"ID":98,"Zone":"Poel","Adres":"Krommenelleboog 62","Eigenaar_naam":"Vincent Sonja","Eigenaar_telefoon":"0475 41 48 44","Eigenaar_email":"","Kamers":"6","Min_prijs":"310","Max_prijs":"310","Type":"Kamer","Lat":"51.0497471","Long":"3.714751999999976"},{"ID":99,"Zone":"Poel","Adres":"Krommenelleboog 64","Eigenaar_naam":"Hanssens Hilde","Eigenaar_telefoon":"0476 39 89 18","Eigenaar_email":"hilde.hanssens@edpnet.be","Kamers":"7","Min_prijs":"260","Max_prijs":"260","Type":"Kamer","Lat":"51.0497471","Long":"3.7146801999999752"},{"ID":100,"Zone":"Poel","Adres":"Krommenelleboog 66","Eigenaar_naam":"Vincent Sonja","Eigenaar_telefoon":"0475 41 48 44","Eigenaar_email":"","Kamers":"6","Min_prijs":"310","Max_prijs":"310","Type":"Kamer","Lat":"51.04976139999999","Long":"3.714607200000046"},{"ID":101,"Zone":"Poel","Adres":"Lieven de Winnestraat 61","Eigenaar_naam":"Eldimo bvba","Eigenaar_telefoon":"0475 43 69 62","Eigenaar_email":"lieven.demulder@skynet.be","Kamers":"9","Min_prijs":"300","Max_prijs":"300","Type":"Kamer","Lat":"51.0487321","Long":"3.714417899999944"},{"ID":102,"Zone":"Poel","Adres":"Lieven de Winnestraat 65","Eigenaar_naam":"Marcia Soyez","Eigenaar_telefoon":"0476 590 898","Eigenaar_email":"marcia.soyez@skynet.be","Kamers":"13","Min_prijs":"300","Max_prijs":"525","Type":"Kamer","Lat":"51.0483787","Long":"3.713758999999982"},{"ID":103,"Zone":"Poel","Adres":"Maagdestraat 21-23","Eigenaar_naam":"Riebbels Luc","Eigenaar_telefoon":"0496\/536 289 - 09\/377 17 16","Eigenaar_email":"luc_riebbels@telenet.be","Kamers":"31","Min_prijs":"315","Max_prijs":"315","Type":"Kamer","Lat":"51.0506292","Long":"3.715537799999993"},{"ID":104,"Zone":"Poel","Adres":"Oude Houtlei 11","Eigenaar_naam":"Muller Jan","Eigenaar_telefoon":"0496\/26 33 24","Eigenaar_email":"jan.muller.antiques@hotmail.com","Kamers":"10","Min_prijs":"340","Max_prijs":"340","Type":"Kamer","Lat":"51.05368259999999","Long":"3.716707499999984"},{"ID":105,"Zone":"Poel","Adres":"Prinsenhof 44","Eigenaar_naam":"TKindt Sabine","Eigenaar_telefoon":"09\/388 73 95 of 0497\/939 927","Eigenaar_email":"sabinet@telenet.be","Kamers":"11","Min_prijs":"230","Max_prijs":"230","Type":"Kamer","Lat":"51.0587138","Long":"3.7161983999999393"},{"ID":106,"Zone":"Poel","Adres":"Rasphuisstraat 114","Eigenaar_naam":"Laconte Nathalie","Eigenaar_telefoon":"0484 90 76 50","Eigenaar_email":"nathalielaconte@gmail.com","Kamers":"6","Min_prijs":"290","Max_prijs":"290","Type":"Kamer","Lat":"51.0536529","Long":"3.7103142999999363"},{"ID":107,"Zone":"Poel","Adres":"Brandstraat 38","Eigenaar_naam":"De Moor Carlo","Eigenaar_telefoon":"0475 44 19 58","Eigenaar_email":"carlodemoor@telenet.be","Kamers":"4","Min_prijs":"430","Max_prijs":"430","Type":"Studio","Lat":"51.05177459999999","Long":"3.715184700000009"},{"ID":108,"Zone":"Poel","Adres":"Galgenberg 24","Eigenaar_naam":"De Maesschalck Philip","Eigenaar_telefoon":"052\/45 04 64 of 0486\/40 08 40","Eigenaar_email":"demaesschalck.debruyne@telenet.be","Kamers":"5","Min_prijs":"420","Max_prijs":"420","Type":"Studio","Lat":"51.0504843","Long":"3.7136990000000196"},{"ID":109,"Zone":"Poel","Adres":"Gruuthuusestraat 3","Eigenaar_naam":"van Gele Jean-Marie","Eigenaar_telefoon":"09\/225 53 64 of 0475\/83 42 73","Eigenaar_email":"woodstrip@hotmail.com","Kamers":"56","Min_prijs":"450","Max_prijs":"450","Type":"Studio","Lat":"51.05507470000001","Long":"3.7194498000000067"},{"ID":110,"Zone":"Poel","Adres":"Hippoliet Lammensstraat 15","Eigenaar_naam":"Bockaert Carlos","Eigenaar_telefoon":"09\/223 78 79","Eigenaar_email":"carlosbockaert@telenet.be","Kamers":"6","Min_prijs":"345","Max_prijs":"345","Type":"Studio","Lat":"51.0578706","Long":"3.711016699999959"},{"ID":111,"Zone":"Poel","Adres":"Hoogstraat 128","Eigenaar_naam":"De Hertogh Adelheid","Eigenaar_telefoon":"0486\/662712","Eigenaar_email":"dehertogh@yahoo.com","Kamers":"3","Min_prijs":"340","Max_prijs":"340","Type":"Studio","Lat":"51.0546424","Long":"3.7141719999999623"},{"ID":112,"Zone":"Poel","Adres":"Hoogstraat 90 - 92","Eigenaar_naam":"Van Daele-Smits Marc","Eigenaar_telefoon":"0473 85 21 82","Eigenaar_email":"marc_van_daele@telenet.be","Kamers":null,"Min_prijs":"340","Max_prijs":"340","Type":"Studio","Lat":"51.0546399","Long":"3.714232000000038"},{"ID":113,"Zone":"Poel","Adres":"Hoogstraat 92","Eigenaar_naam":"De Cooman Pascal","Eigenaar_telefoon":"0497\/852721","Eigenaar_email":"623909@gmail.com","Kamers":null,"Min_prijs":"375","Max_prijs":"380","Type":"Studio","Lat":"51.05464010000001","Long":"3.7142288999999664"},{"ID":114,"Zone":"Poel","Adres":"Iepenstraat 63","Eigenaar_naam":"Van Rie Joris","Eigenaar_telefoon":"0473 33 94 91","Eigenaar_email":"joris.van.rie@telenet.be","Kamers":"4","Min_prijs":"395","Max_prijs":"395","Type":"Studio","Lat":"51.0482477","Long":"3.717372800000021"},{"ID":115,"Zone":"Poel","Adres":"Lieven de Winnestraat 27","Eigenaar_naam":"Riebbels Luc","Eigenaar_telefoon":"0496\/536 289 - 09\/377 17 16","Eigenaar_email":"luc_riebbels@telenet.be","Kamers":"6","Min_prijs":"430","Max_prijs":"430","Type":"Studio","Lat":"51.0493931","Long":"3.7140256000000136"},{"ID":116,"Zone":"Poel","Adres":"Lieven de Winnestraat 54","Eigenaar_naam":"Van De Velde Dirk","Eigenaar_telefoon":"055 49 70 49","Eigenaar_email":"brandbeveiligingvandevelde@pandora.be","Kamers":"6","Min_prijs":"515","Max_prijs":"515","Type":"Studio","Lat":"51.0489834","Long":"3.7144011999999975"},{"ID":117,"Zone":"Poel","Adres":"Poel 23 - 24","Eigenaar_naam":"Balcaen J.","Eigenaar_telefoon":"09\/231 05 46 en 0473\/860 745","Eigenaar_email":"","Kamers":"14","Min_prijs":"370","Max_prijs":"370","Type":"Studio","Lat":"51.0545015","Long":"3.7175205999999434"},{"ID":118,"Zone":"Poel","Adres":"Waarschootstraat 1","Eigenaar_naam":"Van Geyte Jef","Eigenaar_telefoon":"09 235 35 99 of online via www.agro-inve.be","Eigenaar_email":"iepenburg@agro-inve.be","Kamers":"153","Min_prijs":"430","Max_prijs":"430","Type":"Studio","Lat":"51.047856","Long":"3.716554999999971"},{"ID":119,"Zone":"Rabot-Muide","Adres":"Bargiekaai 4","Eigenaar_naam":"Saveyn Hedwig","Eigenaar_telefoon":"056\/60 27 62 of 0477\/48 79 68","Eigenaar_email":"hedwigsaveyn@hotmail.com","Kamers":null,"Min_prijs":"606","Max_prijs":"606","Type":"Appartement","Lat":"51.0583079","Long":"3.7074771000000055"},{"ID":120,"Zone":"Rabot-Muide","Adres":"Begijnhoflaan 474","Eigenaar_naam":"Keppens Guido","Eigenaar_telefoon":"09 221 62 63 of 0475 57 13 78","Eigenaar_email":"","Kamers":"7","Min_prijs":"400","Max_prijs":"400","Type":"Appartement","Lat":"51.0588409","Long":"3.7104755000000296"},{"ID":121,"Zone":"Rabot-Muide","Adres":"Bargiekaai 9","Eigenaar_naam":"Saveyn Hedwig","Eigenaar_telefoon":"056\/60 27 62 of 0477\/487968","Eigenaar_email":"hedwigsaveyn@hotmail.com","Kamers":"21","Min_prijs":"336","Max_prijs":"336","Type":"Kamer","Lat":"51.0584808","Long":"3.7073546000000306"},{"ID":122,"Zone":"Rabot-Muide","Adres":"Begijnhoflaan 39","Eigenaar_naam":"Permentier Stephan","Eigenaar_telefoon":"0477 86 30 19","Eigenaar_email":"stephan.permentier@pandora.be","Kamers":"8","Min_prijs":"295","Max_prijs":"295","Type":"Kamer","Lat":"51.0593307","Long":"3.7120225999999548"},{"ID":123,"Zone":"Rabot-Muide","Adres":"Bellemansstraat 12 - 14","Eigenaar_naam":"Marchand Wim","Eigenaar_telefoon":"0498 51 22 45","Eigenaar_email":"marchand.adriaen@skynet.be","Kamers":"4","Min_prijs":"230","Max_prijs":"230","Type":"Kamer","Lat":"51.0615633","Long":"3.717529300000024"},{"ID":124,"Zone":"Rabot-Muide","Adres":"Gasklokstraat 34","Eigenaar_naam":"De Brouwer Carlos","Eigenaar_telefoon":"0475\/86 55 71","Eigenaar_email":"carlosdebrouwer@hotmail.com","Kamers":null,"Min_prijs":"290","Max_prijs":"290","Type":"Kamer","Lat":"51.0648798","Long":"3.7072882999999592"},{"ID":125,"Zone":"Rabot-Muide","Adres":"Gebroeders De Smetstraat 30","Eigenaar_naam":"Vermeulen Ilse","Eigenaar_telefoon":"0496 23 40 71 of 0496 20 05 04","Eigenaar_email":"johan.nouwynck@skynet.be","Kamers":"4","Min_prijs":"315","Max_prijs":"315","Type":"Kamer","Lat":"51.0610702","Long":"3.7090445000000045"},{"ID":126,"Zone":"Rabot-Muide","Adres":"Gerststraat 1 - 3","Eigenaar_naam":"Vincent Ingrid","Eigenaar_telefoon":"0495 22 65 11","Eigenaar_email":"comptoir7@skynet.be","Kamers":"10","Min_prijs":"320","Max_prijs":"320","Type":"Kamer","Lat":"51.0617438","Long":"3.7179323000000295"},{"ID":127,"Zone":"Rabot-Muide","Adres":"Gerststraat 5 - 7","Eigenaar_naam":"Vincent Johan","Eigenaar_telefoon":"09\/228 69 94 of 0476\/416 507","Eigenaar_email":"annie-vincent@hotmail.com","Kamers":"9","Min_prijs":"240","Max_prijs":"240","Type":"Kamer","Lat":"51.0617215","Long":"3.717647599999964"},{"ID":128,"Zone":"Rabot-Muide","Adres":"Ham 137","Eigenaar_naam":"van Gele Jean-Marie","Eigenaar_telefoon":"0475\/83 42 73 of 09\/225 53 64","Eigenaar_email":"woodstrip@hotmail.com","Kamers":"14","Min_prijs":"315","Max_prijs":"315","Type":"Kamer","Lat":"51.0603078","Long":"3.733697099999972"},{"ID":129,"Zone":"Rabot-Muide","Adres":"Ijskelderstraat 93","Eigenaar_naam":"Devrieze-Claus","Eigenaar_telefoon":"09 385 53 30","Eigenaar_email":"josclaus@skynet.be","Kamers":"8","Min_prijs":"200","Max_prijs":"200","Type":"Kamer","Lat":"51.06374779999999","Long":"3.708661500000062"},{"ID":130,"Zone":"Rabot-Muide","Adres":"Lange Schipgracht 2 - 6","Eigenaar_naam":"Dhuyvetter N.V.","Eigenaar_telefoon":"0484 78 22 84","Eigenaar_email":"","Kamers":"10","Min_prijs":"255","Max_prijs":"255","Type":"Kamer","Lat":"51.0596344","Long":"3.722885099999985"},{"ID":131,"Zone":"Rabot-Muide","Adres":"Molenaarsstraat 77","Eigenaar_naam":"De Braeckeleer J.","Eigenaar_telefoon":"054\/41 48 29 en 0477\/61 71 00","Eigenaar_email":"joskedebraeckeleer@skynet.be","Kamers":"5","Min_prijs":"220","Max_prijs":"220","Type":"Kamer","Lat":"51.061628","Long":"3.717955200000006"},{"ID":132,"Zone":"Rabot-Muide","Adres":"Molenaarsstraat 79","Eigenaar_naam":"Permentier Stephan","Eigenaar_telefoon":"0477 86 30 19","Eigenaar_email":"stephan.permentier@pandora.be","Kamers":"6","Min_prijs":"275","Max_prijs":"275","Type":"Kamer","Lat":"51.0617105","Long":"3.7180155999999442"},{"ID":133,"Zone":"Rabot-Muide","Adres":"Molenaarsstraat 89 - 93","Eigenaar_naam":"Van Melckebeke - Van de Maele","Eigenaar_telefoon":"09\/282 65 30 of 0499\/16 22 93","Eigenaar_email":"Jozef.Vanmelckebeke@scarlet.be","Kamers":"12","Min_prijs":"225","Max_prijs":"225","Type":"Kamer","Lat":"51.0620152","Long":"3.717892699999993"},{"ID":134,"Zone":"Rabot-Muide","Adres":"Pannestraat 27","Eigenaar_naam":"Baetens Kristien","Eigenaar_telefoon":"0487 20 66 33","Eigenaar_email":"kristien.baetens@telenet.be","Kamers":null,"Min_prijs":"200","Max_prijs":"200","Type":"Kamer","Lat":"51.06319680000001","Long":"3.704289499999959"},{"ID":135,"Zone":"Rabot-Muide","Adres":"Tarwestraat 6","Eigenaar_naam":"Vermeulen Ilse","Eigenaar_telefoon":"0496 23 40 71 of 0496 20 05 04","Eigenaar_email":"johan.nouwynck@skynet.be","Kamers":"10","Min_prijs":"383","Max_prijs":"383","Type":"Kamer","Lat":"51.0612536","Long":"3.71787130000007"},{"ID":136,"Zone":"Rabot-Muide","Adres":"Tempelhof 17","Eigenaar_naam":"Peeters Wim","Eigenaar_telefoon":"013\/66 53 54 of 0475\/32 25 37","Eigenaar_email":"landmeterpeeters@telenet.be","Kamers":null,"Min_prijs":"250","Max_prijs":"250","Type":"Kamer","Lat":"51.0593272","Long":"3.7214814999999817"},{"ID":137,"Zone":"Rabot-Muide","Adres":"Tempelhof 35","Eigenaar_naam":"Peeters Wim","Eigenaar_telefoon":"013\/66 53 54 of 0475\/32 25 37","Eigenaar_email":"landmeterpeeters@telenet.be","Kamers":null,"Min_prijs":"275","Max_prijs":"275","Type":"Kamer","Lat":"51.0596125","Long":"3.7219551000000592"},{"ID":138,"Zone":"Rabot-Muide","Adres":"Waldamkaai 23","Eigenaar_naam":"Steven De Pourcq","Eigenaar_telefoon":"0478 911 190","Eigenaar_email":"huurtegent@gmail.com","Kamers":null,"Min_prijs":"230","Max_prijs":"230","Type":"Kamer","Lat":"51.0568481","Long":"3.7085310999999592"},{"ID":139,"Zone":"Rabot-Muide","Adres":"Begijnhoflaan 368","Eigenaar_naam":"Ongenaert Frank","Eigenaar_telefoon":"0475 91 58 56","Eigenaar_email":"frank.ongenaert@gmail.com","Kamers":"6","Min_prijs":"300","Max_prijs":"300","Type":"Studio","Lat":"51.05904659999999","Long":"3.7108292000000347"},{"ID":140,"Zone":"Rabot-Muide","Adres":"Begijnhoflaan 468","Eigenaar_naam":"Keppens Guido","Eigenaar_telefoon":"09 221 62 63 of 0475 57 13 78","Eigenaar_email":"","Kamers":"5","Min_prijs":"370","Max_prijs":"370","Type":"Studio","Lat":"51.058855","Long":"3.7105000000000246"},{"ID":141,"Zone":"Rabot-Muide","Adres":"Begijnhoflaan 53","Eigenaar_naam":"Munghen-Anthuenis E & M","Eigenaar_telefoon":"0477320103 -  0476860028","Eigenaar_email":"munghenanthuenis@skynet.be","Kamers":null,"Min_prijs":"465","Max_prijs":"480","Type":"Studio","Lat":"51.05930679999999","Long":"3.7116982999999664"},{"ID":142,"Zone":"Rabot-Muide","Adres":"Begijnhoflaan 99","Eigenaar_naam":"Bockaert Carlos","Eigenaar_telefoon":"09 223 78 79","Eigenaar_email":"carlosbockaert@telenet.be","Kamers":null,"Min_prijs":"345","Max_prijs":"345","Type":"Studio","Lat":"51.057745","Long":"3.7102956999999606"},{"ID":143,"Zone":"Rabot-Muide","Adres":"Elyzeese Velden 21","Eigenaar_naam":"Vandenberghe Steven","Eigenaar_telefoon":"0477 65 23 66 (na 17u)","Eigenaar_email":"steven.vdberghe@pandora.be","Kamers":"1","Min_prijs":"400","Max_prijs":"400","Type":"Studio","Lat":"51.0622895","Long":"3.7041236999999683"},{"ID":144,"Zone":"Rabot-Muide","Adres":"Filips van Cleeflaan 1","Eigenaar_naam":"Vandenberghe A.","Eigenaar_telefoon":"09 227 44 04 of 0475 76 91 88","Eigenaar_email":"albert.vandenberghe@telenet.be","Kamers":"4","Min_prijs":"350","Max_prijs":"350","Type":"Studio","Lat":"51.0620898","Long":"3.712596899999994"},{"ID":145,"Zone":"Rabot-Muide","Adres":"Gasklokstraat 34","Eigenaar_naam":"De Brouwer Carlos","Eigenaar_telefoon":"0475\/86 55 71","Eigenaar_email":"carlosdebrouwer@hotmail.com","Kamers":null,"Min_prijs":"390","Max_prijs":"390","Type":"Studio","Lat":"51.0648798","Long":"3.7072882999999592"},{"ID":146,"Zone":"Rabot-Muide","Adres":"Ham 10","Eigenaar_naam":"Bekaert Antoine","Eigenaar_telefoon":"09\/282 41 28 (na 20u) of 0475\/92 88 29","Eigenaar_email":"antoine.bekaert1@pandora.be","Kamers":"4","Min_prijs":"345","Max_prijs":"385","Type":"Studio","Lat":"51.0573314","Long":"3.7331885999999486"},{"ID":147,"Zone":"Rabot-Muide","Adres":"Ham 29","Eigenaar_naam":"Vandekerckhove Franciska","Eigenaar_telefoon":"0495 38 28 48","Eigenaar_email":"fvandekerkhove@telenet.be","Kamers":null,"Min_prijs":"499","Max_prijs":"499","Type":"Studio","Lat":"51.0576302","Long":"3.733060499999965"},{"ID":148,"Zone":"Rabot-Muide","Adres":"Jozef II-straat 45","Eigenaar_naam":"Spiessens Maria","Eigenaar_telefoon":"0470 421 072","Eigenaar_email":"mariaspiessens@hotmail.com","Kamers":null,"Min_prijs":"400","Max_prijs":"400","Type":"Studio","Lat":"51.0623023","Long":"3.7113899999999376"},{"ID":149,"Zone":"Rabot-Muide","Adres":"Kartuizerlaan 52","Eigenaar_naam":"Neyt Piet","Eigenaar_telefoon":"0477 33 62 15","Eigenaar_email":"piet@wijnen-neyt.be","Kamers":"6","Min_prijs":"390","Max_prijs":"390","Type":"Studio","Lat":"51.0627736","Long":"3.7265396000000237"},{"ID":150,"Zone":"Rabot-Muide","Adres":"Molenaarsstraat 87","Eigenaar_naam":"Dhuyvetter Bert","Eigenaar_telefoon":"0479 79 29 37","Eigenaar_email":"bert.d.huyvetter@pandora.be","Kamers":null,"Min_prijs":"345","Max_prijs":"345","Type":"Studio","Lat":"51.0619623","Long":"3.717850300000009"},{"ID":151,"Zone":"Rabot-Muide","Adres":"Molenaarsstraat 89 - 93","Eigenaar_naam":"Van Melckebeke - Van de Maele","Eigenaar_telefoon":"09\/282 65 30 of 0499\/16 22 93","Eigenaar_email":"jozef.vanmelckebeke@scarlet.be","Kamers":"4","Min_prijs":"280","Max_prijs":"280","Type":"Studio","Lat":"51.0620152","Long":"3.717892699999993"},{"ID":152,"Zone":"Rabot-Muide","Adres":"Schaliestraat 57 - 59","Eigenaar_naam":"Bernaert Maxime","Eigenaar_telefoon":null,"Eigenaar_email":"maximebernaert@gmail.com","Kamers":"6","Min_prijs":"395","Max_prijs":"395","Type":"Studio","Lat":"51.06362379999999","Long":"3.7055336999999327"},{"ID":153,"Zone":"Rabot-Muide","Adres":"Waldamkaai 23","Eigenaar_naam":"Steven De Pourcq","Eigenaar_telefoon":"0478 911 190","Eigenaar_email":"huurtegent@gmail.com","Kamers":null,"Min_prijs":"395","Max_prijs":"395","Type":"Studio","Lat":"51.0568481","Long":"3.7085310999999592"},{"ID":154,"Zone":"Rabot-Muide","Adres":"Rodelijvekensstraat 86","Eigenaar_naam":"Brigitta De  Coster","Eigenaar_telefoon":"056 21 19 02","Eigenaar_email":"","Kamers":null,"Min_prijs":"420","Max_prijs":"420","Type":"Woning","Lat":"51.0601943","Long":"3.7245937999999796"},{"ID":155,"Zone":"Sint-Amandsberg","Adres":"Engelbert van Arenbergstraat 57","Eigenaar_naam":"Vermeulen Jeroen - Bau Melanie","Eigenaar_telefoon":"0496 23 40 71","Eigenaar_email":"gody.deschodt@telenet.be","Kamers":null,"Min_prijs":"700","Max_prijs":"700","Type":"Appartement","Lat":"51.05715130000001","Long":"3.7451604999999972"},{"ID":156,"Zone":"Sint-Amandsberg","Adres":"Victor Braeckmanlaan 110","Eigenaar_naam":"Van Eeckhout","Eigenaar_telefoon":"0477\/48 72 83","Eigenaar_email":"gilbertedegroote@gmail.com","Kamers":null,"Min_prijs":"620","Max_prijs":"620","Type":"Appartement","Lat":"51.0599183","Long":"3.7535116000000244"},{"ID":157,"Zone":"Sint-Amandsberg","Adres":"Azaleastraat 31","Eigenaar_naam":"Vincent Sonja","Eigenaar_telefoon":"0475 41 48 44","Eigenaar_email":"","Kamers":"8","Min_prijs":"310","Max_prijs":"310","Type":"Kamer","Lat":"51.0608692","Long":"3.751330800000005"},{"ID":158,"Zone":"Sint-Amandsberg","Adres":"Reginald Warnefordstraat 117","Eigenaar_naam":"Genevi\u00e8ve Laureys","Eigenaar_telefoon":"09\/233 01 18 en 0475\/81 44 41","Eigenaar_email":"genevieve.laureys@UGent.be","Kamers":"2","Min_prijs":"275","Max_prijs":"275","Type":"Kamer","Lat":"51.0595499","Long":"3.7479220999999825"},{"ID":159,"Zone":"Sint-Amandsberg","Adres":"Schoolstraat 57","Eigenaar_naam":"Walcinvest (Wallez Myriam)","Eigenaar_telefoon":"09 228 85 65 of 0486 50 20 11","Eigenaar_email":"myriam.wallez@telenet.be","Kamers":"7","Min_prijs":"235","Max_prijs":"235","Type":"Kamer","Lat":"51.0588236","Long":"3.7495841999999584"},{"ID":160,"Zone":"Sint-Pietersplein","Adres":"Kattenberg 5","Eigenaar_naam":"Tyron Van Hee","Eigenaar_telefoon":"0476 88 90 71","Eigenaar_email":"tyron_van_hee@hotmail.com","Kamers":"4","Min_prijs":"620","Max_prijs":"620","Type":"Appartement","Lat":"51.0429208","Long":"3.723573299999998"},{"ID":161,"Zone":"Sint-Pietersplein","Adres":"Kunstlaan 53","Eigenaar_naam":"Ceuterick Geert","Eigenaar_telefoon":"0476\/911 506 (tot 19.00hr)","Eigenaar_email":"ceuterick.gent@telenet.be (BIJ VOORKEUR)","Kamers":null,"Min_prijs":"660","Max_prijs":"660","Type":"Appartement","Lat":"51.0398992","Long":"3.7233757999999852"},{"ID":162,"Zone":"Sint-Pietersplein","Adres":"Nederkouter 53","Eigenaar_naam":"Vanhove Myriam","Eigenaar_telefoon":"0477 78 93 49 of 09 282 67 93","Eigenaar_email":"vanhove.myriam@telenet.be","Kamers":null,"Min_prijs":"680","Max_prijs":"680","Type":"Appartement","Lat":"51.0478064","Long":"3.7217213999999785"},{"ID":163,"Zone":"Sint-Pietersplein","Adres":"Savaanstraat 120","Eigenaar_naam":"Ally Veronique","Eigenaar_telefoon":"0477\/28 47 61","Eigenaar_email":"veronique.ally@skynet.be","Kamers":null,"Min_prijs":"825","Max_prijs":"825","Type":"Appartement","Lat":"51.04890469999999","Long":"3.7263895999999477"},{"ID":164,"Zone":"Sint-Pietersplein","Adres":"Blandijnberg 11","Eigenaar_naam":"Verschueren - Van Hauwaert Emile","Eigenaar_telefoon":"0475\/80 52 12 of 09\/281 09 97 Fax 09\/282 62 28","Eigenaar_email":"e.verschueren@protecton.be","Kamers":"5","Min_prijs":"275","Max_prijs":"275","Type":"Kamer","Lat":"51.0439713","Long":"3.724730300000033"},{"ID":165,"Zone":"Sint-Pietersplein","Adres":"Blandijnberg 5","Eigenaar_naam":"Haegeman Bernard","Eigenaar_telefoon":"0475\/460 416","Eigenaar_email":"bernard@haegeman.eu","Kamers":"18","Min_prijs":"270","Max_prijs":"270","Type":"Kamer","Lat":"51.04391940000001","Long":"3.725214000000051"},{"ID":166,"Zone":"Sint-Pietersplein","Adres":"Blandijnberg 9","Eigenaar_naam":"Verschueren - Van Hauwaert Emile","Eigenaar_telefoon":"0475\/80 52 12 of 09\/281 09 97 Fax 09\/282 62 28","Eigenaar_email":"e.verschueren@protecton.be","Kamers":"5","Min_prijs":"310","Max_prijs":"310","Type":"Kamer","Lat":"51.043924","Long":"3.725049799999965"},{"ID":167,"Zone":"Sint-Pietersplein","Adres":"Charles de Kerchovelaan 6","Eigenaar_naam":"Permentier Stephan","Eigenaar_telefoon":"0477 86 30 19","Eigenaar_email":"stephan.permentier@pandora.be","Kamers":"10","Min_prijs":"320","Max_prijs":"320","Type":"Kamer","Lat":"51.04193679999999","Long":"3.718977099999961"},{"ID":168,"Zone":"Sint-Pietersplein","Adres":"Citadellaan 21","Eigenaar_naam":"Constandt Hans","Eigenaar_telefoon":"0477\/56 61 02","Eigenaar_email":"hans@constandt.be","Kamers":"8","Min_prijs":"300","Max_prijs":"300","Type":"Kamer","Lat":"51.0386046","Long":"3.7273360000000366"},{"ID":169,"Zone":"Sint-Pietersplein","Adres":"Frans Tavernierstraat 7","Eigenaar_naam":"Van der Meersche Eric","Eigenaar_telefoon":"09\/369 99 99 en 0477\/442 744","Eigenaar_email":"vergeylengaetane@skynet.be","Kamers":"6","Min_prijs":"240","Max_prijs":"240","Type":"Kamer","Lat":"51.0485611","Long":"3.72070640000004"},{"ID":170,"Zone":"Sint-Pietersplein","Adres":"Jan-Baptist Guinardstraat 6","Eigenaar_naam":"Immo Juco","Eigenaar_telefoon":"056\/60 15 32","Eigenaar_email":"info@vanderbauwhede.be","Kamers":null,"Min_prijs":"285","Max_prijs":"285","Type":"Kamer","Lat":"51.0472966","Long":"3.724567900000011"},{"ID":171,"Zone":"Sint-Pietersplein","Adres":"Jozef Plateaustraat 43","Eigenaar_naam":"Boelaert Eva","Eigenaar_telefoon":"0479 62 31 53","Eigenaar_email":"evaatje_boelaert@hotmail.com","Kamers":"65","Min_prijs":"325","Max_prijs":"325","Type":"Kamer","Lat":"51.0462719","Long":"3.7249570999999833"},{"ID":172,"Zone":"Sint-Pietersplein","Adres":"Kantienberg 8","Eigenaar_naam":"De Wilde Jacqueline","Eigenaar_telefoon":"09\/221 13 78 of 0496 96 20 85","Eigenaar_email":"","Kamers":"4","Min_prijs":"200","Max_prijs":"200","Type":"Kamer","Lat":"51.0412009","Long":"3.7267683000000034"},{"ID":173,"Zone":"Sint-Pietersplein","Adres":"Kattenberg 57","Eigenaar_naam":"Ceuterick Geert","Eigenaar_telefoon":"0476\/911 506  (tot 19.00hr)","Eigenaar_email":"ceuterick.gent@telenet.be (BIJ VOORKEUR)","Kamers":"8","Min_prijs":"270","Max_prijs":"270","Type":"Kamer","Lat":"51.0404577","Long":"3.7242976999999655"},{"ID":174,"Zone":"Sint-Pietersplein","Adres":"Ketelvest 53","Eigenaar_naam":"Cornelis Johan","Eigenaar_telefoon":"09\/377 49 59 en 0478\/781 721","Eigenaar_email":"johan_cornelis@skynet.be","Kamers":"16","Min_prijs":"325","Max_prijs":"325","Type":"Kamer","Lat":"51.04928719999999","Long":"3.725727900000038"},{"ID":175,"Zone":"Sint-Pietersplein","Adres":"Korianderstraat 4","Eigenaar_naam":"Gunst-De Cuyper","Eigenaar_telefoon":"0496 45 75 09","Eigenaar_email":"freddy.gunst@pandora.be","Kamers":"35","Min_prijs":"295","Max_prijs":"295","Type":"Kamer","Lat":"51.0487516","Long":"3.7273896000000377"},{"ID":176,"Zone":"Sint-Pietersplein","Adres":"Kunstlaan 13","Eigenaar_naam":"CV Gent Eurimmo","Eigenaar_telefoon":"09 221 31 12","Eigenaar_email":"info@eurimmo.be","Kamers":"8","Min_prijs":"365","Max_prijs":"365","Type":"Kamer","Lat":"51.04101600000001","Long":"3.7248683000000256"},{"ID":177,"Zone":"Sint-Pietersplein","Adres":"Kunstlaan 15","Eigenaar_naam":"CV Gent Eurimmo","Eigenaar_telefoon":"09 221 31 12","Eigenaar_email":"info@eurimmo.be","Kamers":"9","Min_prijs":"395","Max_prijs":"395","Type":"Kamer","Lat":"51.0409288","Long":"3.7249587999999676"},{"ID":178,"Zone":"Sint-Pietersplein","Adres":"Kunstlaan 26","Eigenaar_naam":"Ceuterick Geert","Eigenaar_telefoon":"0476\/911 506 (tot 19.00hr)","Eigenaar_email":"ceuterick.gent@telenet.be (BIJ VOORKEUR)","Kamers":null,"Min_prijs":"210","Max_prijs":"210","Type":"Kamer","Lat":"51.0408731","Long":"3.724419799999964"},{"ID":179,"Zone":"Sint-Pietersplein","Adres":"Kunstlaan 29","Eigenaar_naam":"Ceuterick Geert","Eigenaar_telefoon":"0476\/911 506 (tot 19.00hr)","Eigenaar_email":"ceuterick.gent@telenet.be (BIJ VOORKEUR)","Kamers":null,"Min_prijs":"205","Max_prijs":"205","Type":"Kamer","Lat":"51.04068729999999","Long":"3.724407499999984"},{"ID":180,"Zone":"Sint-Pietersplein","Adres":"Kunstlaan 30","Eigenaar_naam":"Ceuterick Geert","Eigenaar_telefoon":"0476\/911 506 (tot 19.00hr)","Eigenaar_email":"ceuterick.gent@telenet.be (BIJ VOORKEUR)","Kamers":null,"Min_prijs":"200","Max_prijs":"200","Type":"Kamer","Lat":"51.0407776","Long":"3.7242969999999787"},{"ID":181,"Zone":"Sint-Pietersplein","Adres":"Kunstlaan 53","Eigenaar_naam":"Ceuterick Geert","Eigenaar_telefoon":"0476\/911 506 (tot 19.00hr)","Eigenaar_email":"ceuterick.gent@telenet.be (BIJ VOORKEUR)","Kamers":null,"Min_prijs":"330","Max_prijs":"330","Type":"Kamer","Lat":"51.0398992","Long":"3.7233757999999852"},{"ID":182,"Zone":"Sint-Pietersplein","Adres":"Nederkouter 9","Eigenaar_naam":"Kestens Leon","Eigenaar_telefoon":"0477 57 27 66","Eigenaar_email":"","Kamers":null,"Min_prijs":"315","Max_prijs":"315","Type":"Kamer","Lat":"51.0485549","Long":"3.721381000000065"},{"ID":183,"Zone":"Sint-Pietersplein","Adres":"Rozier 13","Eigenaar_naam":"Muller Jan","Eigenaar_telefoon":"0496\/26 33 24","Eigenaar_email":"jan.muller.antiques@hotmail.com","Kamers":"5","Min_prijs":"340","Max_prijs":"340","Type":"Kamer","Lat":"51.0452478","Long":"3.7242804999999635"},{"ID":184,"Zone":"Sint-Pietersplein","Adres":"Savaanstraat 128","Eigenaar_naam":"Lambert Paul","Eigenaar_telefoon":"0495 54 40 04","Eigenaar_email":"paullambert@telenet.be","Kamers":"6","Min_prijs":"450","Max_prijs":"450","Type":"Kamer","Lat":"51.0490494","Long":"3.7268675000000258"},{"ID":185,"Zone":"Sint-Pietersplein","Adres":"Savaanstraat 82","Eigenaar_naam":"Pauwels Invest","Eigenaar_telefoon":"09\/269 63 28 of 0492 72 55 59","Eigenaar_email":"melissa.moreels@pconsulting.net","Kamers":"49","Min_prijs":"330","Max_prijs":"330","Type":"Kamer","Lat":"51.0485891","Long":"3.723844999999983"},{"ID":186,"Zone":"Sint-Pietersplein","Adres":"Sint-Amandstraat 78","Eigenaar_naam":"Vincent Ingrid","Eigenaar_telefoon":"0495 22 65 11","Eigenaar_email":"comptoir7@skynet.be","Kamers":"11","Min_prijs":"310","Max_prijs":"310","Type":"Kamer","Lat":"51.041472","Long":"3.7251691000000164"},{"ID":187,"Zone":"Sint-Pietersplein","Adres":"Sint-Kwintensberg 9 - 15","Eigenaar_naam":"Claeyssens Blanca","Eigenaar_telefoon":"0498 45 23 36","Eigenaar_email":"elieclaeyssens@hotmail.com","Kamers":"4","Min_prijs":"375","Max_prijs":"375","Type":"Kamer","Lat":"51.0459611","Long":"3.722442600000022"},{"ID":188,"Zone":"Sint-Pietersplein","Adres":"Sint-Pietersnieuwstraat 214","Eigenaar_naam":"Bockaert Nele","Eigenaar_telefoon":"0497 59 33 64","Eigenaar_email":"","Kamers":"13","Min_prijs":"430","Max_prijs":"430","Type":"Kamer","Lat":"51.0444287","Long":"3.72638029999996"},{"ID":189,"Zone":"Sint-Pietersplein","Adres":"Sint-Pietersplein 16","Eigenaar_naam":"Van Hecke - Van Hecke","Eigenaar_telefoon":"0473 49 59 34","Eigenaar_email":"","Kamers":"24","Min_prijs":"255","Max_prijs":"255","Type":"Kamer","Lat":"51.0414227","Long":"3.7264525000000503"},{"ID":190,"Zone":"Sint-Pietersplein","Adres":"Verdedigingstraat 10","Eigenaar_naam":"Moreels Dani\u00eblle","Eigenaar_telefoon":"0475 89 80 50","Eigenaar_email":"danielle.moreels@telenet.be","Kamers":"4","Min_prijs":"325","Max_prijs":"325","Type":"Kamer","Lat":"51.04281","Long":"3.7208663000000115"},{"ID":191,"Zone":"Sint-Pietersplein","Adres":"Voetweg 6","Eigenaar_naam":"Van der Mynsbrugge Frank","Eigenaar_telefoon":"0475 67 39 19","Eigenaar_email":"anframo.nv@gmail.com","Kamers":"7","Min_prijs":"365","Max_prijs":"365","Type":"Kamer","Lat":"51.0405896","Long":"3.725950600000033"},{"ID":192,"Zone":"Sint-Pietersplein","Adres":"Willem Tellstraat 28","Eigenaar_naam":"De Neve Rene","Eigenaar_telefoon":"0475\/53 74 98","Eigenaar_email":"","Kamers":"6","Min_prijs":"200","Max_prijs":"200","Type":"Kamer","Lat":"51.0464344","Long":"3.7237575000000334"},{"ID":193,"Zone":"Sint-Pietersplein","Adres":"Benedictijnenstraat 68","Eigenaar_naam":"Vandermeersch Gabri\u00ebl","Eigenaar_telefoon":"0486 95 82 78 of 058 29 97 05","Eigenaar_email":"axa.beauvoorde@axa-bank.be","Kamers":null,"Min_prijs":"535","Max_prijs":"535","Type":"Studio","Lat":"51.0402044","Long":"3.7272156000000223"},{"ID":194,"Zone":"Sint-Pietersplein","Adres":"Blandijnberg 11","Eigenaar_naam":"Verschueren - Van Hauwaert Emile","Eigenaar_telefoon":"0475\/80 52 12 of 09\/281 09 97 Fax 09\/282 62 28","Eigenaar_email":"e.verschueren@protecton.be","Kamers":"5","Min_prijs":"390","Max_prijs":"390","Type":"Studio","Lat":"51.0439713","Long":"3.724730300000033"},{"ID":195,"Zone":"Sint-Pietersplein","Adres":"Blandijnberg 9","Eigenaar_naam":"Verschueren - Van Hauwaert Emile","Eigenaar_telefoon":"0475\/80 52 12 of 09\/281 09 97 Fax 09\/282 62 28","Eigenaar_email":"e.verschueren@protecton.be","Kamers":"5","Min_prijs":"465","Max_prijs":"465","Type":"Studio","Lat":"51.043924","Long":"3.725049799999965"},{"ID":196,"Zone":"Sint-Pietersplein","Adres":"Charles de Kerchovelaan 10","Eigenaar_naam":"Riebbels Luc","Eigenaar_telefoon":"0496\/536 289","Eigenaar_email":"luc_riebbels@telenet.be","Kamers":"6","Min_prijs":"450","Max_prijs":"450","Type":"Studio","Lat":"51.04193679999999","Long":"3.718977099999961"},{"ID":197,"Zone":"Sint-Pietersplein","Adres":"Citadellaan 17","Eigenaar_naam":"Coene Els","Eigenaar_telefoon":"0473 26 26 61","Eigenaar_email":"els_coene@skynet.be","Kamers":null,"Min_prijs":"430","Max_prijs":"430","Type":"Studio","Lat":"51.0386122","Long":"3.7270911000000524"},{"ID":198,"Zone":"Sint-Pietersplein","Adres":"Hippolyte Metdepenningenstraat 1 - 17","Eigenaar_naam":"Vincent Ingrid","Eigenaar_telefoon":"0495 22 65 11","Eigenaar_email":"comptoir7@skynet.be","Kamers":null,"Min_prijs":"440","Max_prijs":"440","Type":"Studio","Lat":"51.04439379999999","Long":"3.723089800000025"},{"ID":199,"Zone":"Sint-Pietersplein","Adres":"Hoveniersberg 6H","Eigenaar_naam":"David Roeland","Eigenaar_telefoon":"0479 366 408","Eigenaar_email":"david.roelandt@ugent.be","Kamers":"150","Min_prijs":"460,76","Max_prijs":"460,76","Type":"Studio","Lat":"51.0443267","Long":"3.7271140999999943"},{"ID":200,"Zone":"Sint-Pietersplein","Adres":"Jan Frans Willemsstraat 4","Eigenaar_naam":"Van Gaeveren Hans","Eigenaar_telefoon":"0487 52 76 90","Eigenaar_email":"fotovideocenter@telenet.be","Kamers":null,"Min_prijs":"410","Max_prijs":"410","Type":"Studio","Lat":"51.0389017","Long":"3.7273572000000286"},{"ID":201,"Zone":"Sint-Pietersplein","Adres":"Jan Frans Willemsstraat 8","Eigenaar_naam":"CV Gent Eurimmo - De Wulf An","Eigenaar_telefoon":"09 221 31 12","Eigenaar_email":"info@eurimmo.be","Kamers":"9","Min_prijs":"395","Max_prijs":"395","Type":"Studio","Lat":"51.0391959","Long":"3.727325599999972"},{"ID":202,"Zone":"Sint-Pietersplein","Adres":"Jan-Baptist Guinardstraat 14","Eigenaar_naam":"Ceuterick Geert","Eigenaar_telefoon":"0476\/911 506  (tot 19.00hr)","Eigenaar_email":"ceuterick.gent@telenet.be (BIJ VOORKEUR)","Kamers":null,"Min_prijs":"350","Max_prijs":"350","Type":"Studio","Lat":"51.0470408","Long":"3.7246549999999843"},{"ID":203,"Zone":"Sint-Pietersplein","Adres":"Kantienberg 24","Eigenaar_naam":"Ceuterick Geert","Eigenaar_telefoon":"0476\/911 506  (tot 19.00hr)","Eigenaar_email":"ceuterick.gent@telenet.be (BIJ VOORKEUR)","Kamers":null,"Min_prijs":"475","Max_prijs":"475","Type":"Studio","Lat":"51.0411967","Long":"3.727556400000026"},{"ID":204,"Zone":"Sint-Pietersplein","Adres":"Karel Van Hulthemstraat 63","Eigenaar_naam":"Kris Ledegen","Eigenaar_telefoon":"0475 42 21 17","Eigenaar_email":"info@pubneon.be","Kamers":"4","Min_prijs":"390","Max_prijs":"390","Type":"Studio","Lat":"51.0426465","Long":"3.7219268999999713"},{"ID":205,"Zone":"Sint-Pietersplein","Adres":"Kattenberg 33","Eigenaar_naam":"Berquin C","Eigenaar_telefoon":"0495 22 65 11","Eigenaar_email":"comptoir7@skynet.be","Kamers":null,"Min_prijs":"500","Max_prijs":"500","Type":"Studio","Lat":"51.04146679999999","Long":"3.724190799999974"},{"ID":206,"Zone":"Sint-Pietersplein","Adres":"Kattenberg 59 - 63","Eigenaar_naam":"Ceuterick Geert","Eigenaar_telefoon":"0476\/911 506  (tot 19.00hr)","Eigenaar_email":"ceuterick.gent@telenet.be (BIJ VOORKEUR)","Kamers":null,"Min_prijs":"535","Max_prijs":"535","Type":"Studio","Lat":"51.0403684","Long":"3.7243192999999337"},{"ID":207,"Zone":"Sint-Pietersplein","Adres":"Kortrijksepoortstraat 299","Eigenaar_naam":"CV Gent Eurimmo","Eigenaar_telefoon":"09 221 31 12","Eigenaar_email":"info@eurimmo.be","Kamers":"16","Min_prijs":"435","Max_prijs":"435","Type":"Studio","Lat":"51.0428013","Long":"3.719866300000035"},{"ID":208,"Zone":"Sint-Pietersplein","Adres":"Kunstlaan 13","Eigenaar_naam":"CV Gent Eurimmo","Eigenaar_telefoon":"09 221 31 12","Eigenaar_email":"info@eurimmo.be","Kamers":"8","Min_prijs":"465","Max_prijs":"465","Type":"Studio","Lat":"51.04101600000001","Long":"3.7248683000000256"},{"ID":209,"Zone":"Sint-Pietersplein","Adres":"Kunstlaan 25","Eigenaar_naam":"Ceuterick Geert","Eigenaar_telefoon":"0476\/911 506 (tot 19.00hr)","Eigenaar_email":"ceuterick.gent@telenet.be (BIJ VOORKEUR)","Kamers":null,"Min_prijs":"350","Max_prijs":"350","Type":"Studio","Lat":"51.0407164","Long":"3.7246000000000095"},{"ID":210,"Zone":"Sint-Pietersplein","Adres":"Kunstlaan 26","Eigenaar_naam":"Ceuterick Geert","Eigenaar_telefoon":"0476\/911 506 (tot 19.00hr)","Eigenaar_email":"ceuterick.gent@telenet.be (BIJ VOORKEUR)","Kamers":null,"Min_prijs":"665","Max_prijs":"665","Type":"Studio","Lat":"51.0408731","Long":"3.724419799999964"},{"ID":211,"Zone":"Sint-Pietersplein","Adres":"Kunstlaan 27","Eigenaar_naam":"Ceuterick Geert","Eigenaar_telefoon":"0476\/911 506 (tot 19.00hr)","Eigenaar_email":"ceuterick.gent@telenet.be (BIJ VOORKEUR)","Kamers":null,"Min_prijs":"340","Max_prijs":"340","Type":"Studio","Lat":"51.0406991","Long":"3.724506799999972"},{"ID":212,"Zone":"Sint-Pietersplein","Adres":"Kunstlaan 28","Eigenaar_naam":"Ceuterick Geert","Eigenaar_telefoon":"0476\/911 506 (tot 19.00hr)","Eigenaar_email":"ceuterick.gent@telenet.be (BIJ VOORKEUR)","Kamers":"11","Min_prijs":"365","Max_prijs":"365","Type":"Studio","Lat":"51.0408253","Long":"3.7243584000000283"},{"ID":213,"Zone":"Sint-Pietersplein","Adres":"Kunstlaan 29","Eigenaar_naam":"Ceuterick Geert","Eigenaar_telefoon":"0476\/911 506 (tot 19.00hr)","Eigenaar_email":"ceuterick.gent@telenet.be (BIJ VOORKEUR)","Kamers":null,"Min_prijs":"325","Max_prijs":"325","Type":"Studio","Lat":"51.04068729999999","Long":"3.724407499999984"},{"ID":214,"Zone":"Sint-Pietersplein","Adres":"Kunstlaan 30","Eigenaar_naam":"Ceuterick Geert","Eigenaar_telefoon":"0476\/911 506 (tot 19.00hr)","Eigenaar_email":"ceuterick.gent@telenet.be (BIJ VOORKEUR)","Kamers":null,"Min_prijs":"310","Max_prijs":"310","Type":"Studio","Lat":"51.0407776","Long":"3.7242969999999787"},{"ID":215,"Zone":"Sint-Pietersplein","Adres":"Kunstlaan 37","Eigenaar_naam":"CV Gent Eurimmo","Eigenaar_telefoon":"09 221 31 12","Eigenaar_email":"info@eurimmo.be","Kamers":null,"Min_prijs":"394","Max_prijs":"394","Type":"Studio","Lat":"51.0402741","Long":"3.7239360999999462"},{"ID":216,"Zone":"Sint-Pietersplein","Adres":"Nederkouter 53","Eigenaar_naam":"Vanhove Myriam","Eigenaar_telefoon":"0477 78 93 49 of 09 282 67 93","Eigenaar_email":"vanhove.myriam@telenet.be","Kamers":"12","Min_prijs":"500","Max_prijs":"500","Type":"Studio","Lat":"51.0478064","Long":"3.7217213999999785"},{"ID":217,"Zone":"Sint-Pietersplein","Adres":"Nederkouter 9","Eigenaar_naam":"Kestens Leon","Eigenaar_telefoon":"09 231 71 31 of 0477 57 27 66","Eigenaar_email":"","Kamers":null,"Min_prijs":"444","Max_prijs":"444","Type":"Studio","Lat":"51.0485549","Long":"3.721381000000065"},{"ID":218,"Zone":"Sint-Pietersplein","Adres":"Savaanstraat 112","Eigenaar_naam":"Libert Jean-Jacques","Eigenaar_telefoon":"09 225 20 53 of 0472 59 21 79","Eigenaar_email":"vverstraeten@skynet.be","Kamers":"18","Min_prijs":"390","Max_prijs":"400","Type":"Studio","Lat":"51.048779","Long":"3.7254196000000093"},{"ID":219,"Zone":"Sint-Pietersplein","Adres":"Savaanstraat 120","Eigenaar_naam":"Ally Veronique","Eigenaar_telefoon":"0477\/28 47 61","Eigenaar_email":"veronique.ally@skynet.be","Kamers":null,"Min_prijs":"525","Max_prijs":"525","Type":"Studio","Lat":"51.04890469999999","Long":"3.7263895999999477"},{"ID":220,"Zone":"Sint-Pietersplein","Adres":"Sint-Hubertusstraat 1","Eigenaar_naam":"Lafaut Guido","Eigenaar_telefoon":"051 46 72 38 of 0474 27 81 80","Eigenaar_email":"guido.lafaut@skynet.be","Kamers":"39","Min_prijs":"500","Max_prijs":"500","Type":"Studio","Lat":"51.0444396","Long":"3.724203999999986"},{"ID":221,"Zone":"Sint-Pietersplein","Adres":"Sint-Kwintensberg 44","Eigenaar_naam":"De Dycker Patrick","Eigenaar_telefoon":"068\/33 39 07 en 0475\/455 766","Eigenaar_email":"patrick.de.dycker@euphonynet.be","Kamers":"9","Min_prijs":"425","Max_prijs":"425","Type":"Studio","Lat":"51.0463623","Long":"3.7221128999999564"},{"ID":222,"Zone":"Sint-Pietersplein","Adres":"Sint-Kwintensberg 71","Eigenaar_naam":"De Dycker Patrick","Eigenaar_telefoon":"068\/33 39 07 en 0475\/455 766","Eigenaar_email":"patrick.de.dycker@euphonynet.be","Kamers":"5","Min_prijs":"395","Max_prijs":"395","Type":"Studio","Lat":"51.0452021","Long":"3.7231620999999677"},{"ID":223,"Zone":"Sint-Pietersplein","Adres":"Sint-Pietersnieuwstraat 17","Eigenaar_naam":"Vandersteene","Eigenaar_telefoon":"09\/222 28 13 en 0475\/51.18.19","Eigenaar_email":"advice.office@skynet.be","Kamers":"15","Min_prijs":"420","Max_prijs":"420","Type":"Studio","Lat":"51.0479467","Long":"3.727243999999928"},{"ID":224,"Zone":"Sint-Pietersplein","Adres":"Sint-Pietersnieuwstraat 214","Eigenaar_naam":"Bockaert Nele","Eigenaar_telefoon":"0497\/59 33 64","Eigenaar_email":"","Kamers":"16","Min_prijs":"430","Max_prijs":"430","Type":"Studio","Lat":"51.0444287","Long":"3.72638029999996"},{"ID":225,"Zone":"Sint-Pietersplein","Adres":"Sint-Pietersplein 16","Eigenaar_naam":"Van Hecke - Van Hecke","Eigenaar_telefoon":"0473 49 59 34","Eigenaar_email":"","Kamers":"24","Min_prijs":"360","Max_prijs":"360","Type":"Studio","Lat":"51.0414227","Long":"3.7264525000000503"},{"ID":226,"Zone":"Sint-Pietersplein","Adres":"Verdedigingstraat 14","Eigenaar_naam":"Hallaert","Eigenaar_telefoon":"0475 68 89 85 (na 14u)","Eigenaar_email":"rogi67@telenet.be","Kamers":null,"Min_prijs":"420","Max_prijs":"420","Type":"Studio","Lat":"51.0426242","Long":"3.7211995000000115"},{"ID":227,"Zone":"Sint-Pietersplein","Adres":"Voetweg 2","Eigenaar_naam":"Vercruysse Annemie","Eigenaar_telefoon":"051 24 19 55","Eigenaar_email":"annemievercruysse@gmail.com","Kamers":null,"Min_prijs":"370","Max_prijs":"370","Type":"Studio","Lat":"51.0405186","Long":"3.7258357000000615"},{"ID":228,"Zone":"Sint-Pietersplein","Adres":"Voetweg 6","Eigenaar_naam":"Van der Mynsbrugge Frank","Eigenaar_telefoon":"0475 67 39 19","Eigenaar_email":"anframo.nv@gmail.com","Kamers":"7","Min_prijs":"470","Max_prijs":"470","Type":"Studio","Lat":"51.0405896","Long":"3.725950600000033"},{"ID":229,"Zone":"Sint-Pietersplein","Adres":"Willem Tellstraat 9","Eigenaar_naam":"Riebbels Luc","Eigenaar_telefoon":"0496\/536 289 - 09\/377 17 16","Eigenaar_email":"luc_riebbels@telenet.be","Kamers":"12","Min_prijs":"440","Max_prijs":"440","Type":"Studio","Lat":"51.04695040000001","Long":"3.723754299999996"},{"ID":230,"Zone":"Sint-Pietersstation","Adres":"Eedverbondkaai 25","Eigenaar_naam":"Watty Gilbert","Eigenaar_telefoon":"059\/50 3326 of 0486\/59 87 42","Eigenaar_email":"gilbert.watty@pandora.be","Kamers":null,"Min_prijs":"610","Max_prijs":"610","Type":"Appartement","Lat":"51.042407","Long":"3.7172177999999576"},{"ID":231,"Zone":"Sint-Pietersstation","Adres":"Knokkestraat 14 - 18","Eigenaar_naam":"Keppens Guido","Eigenaar_telefoon":"09 221 62 63 of 0475 57 13 78","Eigenaar_email":"","Kamers":"9","Min_prijs":"420","Max_prijs":"420","Type":"Appartement","Lat":"51.037232","Long":"3.7130403999999544"},{"ID":232,"Zone":"Sint-Pietersstation","Adres":"Prinses Clementinalaan 111 - 119","Eigenaar_naam":"Vermeulen Gody","Eigenaar_telefoon":"0496\/23 40 71","Eigenaar_email":"gody.deschodt@telenet.be","Kamers":null,"Min_prijs":"745","Max_prijs":"745","Type":"Appartement","Lat":"51.0350034","Long":"3.714965300000017"},{"ID":233,"Zone":"Sint-Pietersstation","Adres":"Beemdstraat 3","Eigenaar_naam":"De Buck M.","Eigenaar_telefoon":"09\/386 34 36 of 0474\/80 00 92","Eigenaar_email":"wveenoo@telenet.be","Kamers":"9","Min_prijs":"195","Max_prijs":"195","Type":"Kamer","Lat":"51.041152","Long":"3.715245399999958"},{"ID":234,"Zone":"Sint-Pietersstation","Adres":"Eedverbondkaai 25","Eigenaar_naam":"Watty Gilbert","Eigenaar_telefoon":"059\/50 3326 of 0486\/59 87 42","Eigenaar_email":"Gilbert.watty@telenet.be","Kamers":"25","Min_prijs":"220","Max_prijs":"220","Type":"Kamer","Lat":"51.042407","Long":"3.7172177999999576"},{"ID":235,"Zone":"Sint-Pietersstation","Adres":"Koningin Fabiolalaan 8","Eigenaar_naam":"Van der Mynsbrugge Frank","Eigenaar_telefoon":"0475 67 39 19","Eigenaar_email":"anframo.nv@gmail.com","Kamers":"11","Min_prijs":"355","Max_prijs":"355","Type":"Kamer","Lat":"51.0374157","Long":"3.708683800000017"},{"ID":236,"Zone":"Sint-Pietersstation","Adres":"Kortrijksesteenweg 610","Eigenaar_naam":"Steyaert Jos","Eigenaar_telefoon":"09 221 66 34 of 0473 925 154","Eigenaar_email":"joseph.steyaert@skynet.be","Kamers":null,"Min_prijs":"238","Max_prijs":"238","Type":"Kamer","Lat":"51.0307846","Long":"3.7130807999999433"},{"ID":237,"Zone":"Sint-Pietersstation","Adres":"Kortrijksesteenweg 691","Eigenaar_naam":"De Keyser Luc","Eigenaar_telefoon":"09\/226 25 71 en 0476\/406 559","Eigenaar_email":"luc.de.keyser3@telenet.be","Kamers":"16","Min_prijs":"239","Max_prijs":"239","Type":"Kamer","Lat":"51.0310308","Long":"3.7132120999999643"},{"ID":238,"Zone":"Sint-Pietersstation","Adres":"Lamoraal van Egmontstraat 8","Eigenaar_naam":"Van Hulle Simone","Eigenaar_telefoon":"0478\/54 00 07 en 0475 30 19 08","Eigenaar_email":"chrisverheye@telenet.be","Kamers":"11","Min_prijs":"400","Max_prijs":"400","Type":"Kamer","Lat":"51.03899990000001","Long":"3.716621700000019"},{"ID":239,"Zone":"Sint-Pietersstation","Adres":"Prinses Clementinalaan 189","Eigenaar_naam":"Lafaut Guido","Eigenaar_telefoon":"051 46 72 38 of 0474 27 81 80","Eigenaar_email":"guido.lafaut@skynet.be","Kamers":"15","Min_prijs":"260","Max_prijs":"260","Type":"Kamer","Lat":"51.0356912","Long":"3.7129419000000325"},{"ID":240,"Zone":"Sint-Pietersstation","Adres":"Tenderstraat 29","Eigenaar_naam":"Plompen Marcel","Eigenaar_telefoon":"0477 65 88 85","Eigenaar_email":"marcel.plompen@telenet.be","Kamers":"6","Min_prijs":"290","Max_prijs":"290","Type":"Kamer","Lat":"51.0380103","Long":"3.706972500000006"},{"ID":241,"Zone":"Sint-Pietersstation","Adres":"Koningin Fabiolalaan 8","Eigenaar_naam":"Van der Mynsbrugge Frank","Eigenaar_telefoon":"0475 67 39 19","Eigenaar_email":"anframo.nv@gmail.com","Kamers":null,"Min_prijs":"655","Max_prijs":"655","Type":"Studio","Lat":"51.0374157","Long":"3.708683800000017"},{"ID":242,"Zone":"Sint-Pietersstation","Adres":"Kortrijksesteenweg 610","Eigenaar_naam":"Steyaert Jos","Eigenaar_telefoon":"09\/221 66 34 of 0473 92 51 54","Eigenaar_email":"joseph.steyaert@skynet.be","Kamers":null,"Min_prijs":"303","Max_prijs":"303","Type":"Studio","Lat":"51.0307846","Long":"3.7130807999999433"},{"ID":243,"Zone":"Sint-Pietersstation","Adres":"Krijgslaan 149","Eigenaar_naam":"Van Hove Dirk","Eigenaar_telefoon":"09 370 89 98 of 0478 57 35 49","Eigenaar_email":"dirk.van.hove@telenet.be","Kamers":null,"Min_prijs":"380","Max_prijs":"380","Type":"Studio","Lat":"51.0326205","Long":"3.7206367"},{"ID":244,"Zone":"Sint-Pietersstation","Adres":"Krijgslaan 39","Eigenaar_naam":"Keppens Guido","Eigenaar_telefoon":"09 221 62 63 of 0475 57 13 78","Eigenaar_email":"","Kamers":"8","Min_prijs":"360","Max_prijs":"360","Type":"Studio","Lat":"51.0345974","Long":"3.7202939000000015"},{"ID":245,"Zone":"Sint-Pietersstation","Adres":"Prinses Clementinalaan 181","Eigenaar_naam":"CV Gent Eurimmo - De Wulf An","Eigenaar_telefoon":"09 221 31 12","Eigenaar_email":"info@eurimmo.be","Kamers":null,"Min_prijs":"425","Max_prijs":"425","Type":"Studio","Lat":"51.03544549999999","Long":"3.713336400000003"},{"ID":246,"Zone":"Sterre","Adres":"Achilles Musschestraat 101 - 102","Eigenaar_naam":"Van de Velde Dominique","Eigenaar_telefoon":"0475 74 88 18","Eigenaar_email":"dominique.vdvelde@skynet.be","Kamers":"7","Min_prijs":"235","Max_prijs":"235","Type":"Kamer","Lat":"51.0315483","Long":"3.7256073999999444"},{"ID":247,"Zone":"Sterre","Adres":"Ganzendries 152","Eigenaar_naam":"De Keyser Luc","Eigenaar_telefoon":"09\/226 25 71 en 0476\/406 559","Eigenaar_email":"luc.de.keyser3@telenet.be","Kamers":"14","Min_prijs":"221","Max_prijs":"221","Type":"Kamer","Lat":"51.0333264","Long":"3.7112721999999394"},{"ID":248,"Zone":"Sterre","Adres":"Hof ter Mere 1","Eigenaar_naam":"Gekiere Robert","Eigenaar_telefoon":"09\/369 27 94 - 0477\/26 84 62","Eigenaar_email":"robert.gekiere@hogent.be","Kamers":"7","Min_prijs":"240","Max_prijs":"240","Type":"Kamer","Lat":"51.0338314","Long":"3.709733599999936"},{"ID":249,"Zone":"Sterre","Adres":"Koersenstraat 7","Eigenaar_naam":"Segers Hector","Eigenaar_telefoon":"0496 15 09 55 of 0488 369 814","Eigenaar_email":"","Kamers":"5","Min_prijs":"270","Max_prijs":"270","Type":"Kamer","Lat":"51.025773","Long":"3.7086268000000473"},{"ID":250,"Zone":"Sterre","Adres":"Kortrijksesteenweg 692 - 696","Eigenaar_naam":"Vincent Ingrid","Eigenaar_telefoon":"0495 22 65 11","Eigenaar_email":"comptoir7@skynet.be","Kamers":null,"Min_prijs":"325","Max_prijs":"345","Type":"Kamer","Lat":"51.0297861","Long":"3.7125750000000153"},{"ID":251,"Zone":"Sterre","Adres":"Maaltebruggestraat 124","Eigenaar_naam":"Segers Hector","Eigenaar_telefoon":"0488 369 814 of 0496 15 09 55","Eigenaar_email":"","Kamers":"4","Min_prijs":"265","Max_prijs":"265","Type":"Kamer","Lat":"51.0299899","Long":"3.7101697000000513"},{"ID":252,"Zone":"Sterre","Adres":"Maaltebruggestraat 88","Eigenaar_naam":"Lambrecht Stefaan","Eigenaar_telefoon":"0475\/68 74 80","Eigenaar_email":"stefaan.lambrecht@hogent.be","Kamers":"5","Min_prijs":"265","Max_prijs":"265","Type":"Kamer","Lat":"51.0305294","Long":"3.710999300000026"},{"ID":253,"Zone":"Sterre","Adres":"Poelsnepstraat 48","Eigenaar_naam":"Heymans Stefaan","Eigenaar_telefoon":"09\/220 84 67 en 0474\/85 86 89","Eigenaar_email":"heymans.stefaan@pandora.be","Kamers":"4","Min_prijs":"285","Max_prijs":"285","Type":"Kamer","Lat":"51.0334428","Long":"3.7115327000000207"},{"ID":254,"Zone":"Sterre","Adres":"Voskenslaan 406","Eigenaar_naam":"IACS bvba","Eigenaar_telefoon":"0499 26 89 77","Eigenaar_email":"info@iacs.be","Kamers":"8","Min_prijs":"410","Max_prijs":"410","Type":"Kamer","Lat":"51.02754160000001","Long":"3.708743199999958"},{"ID":255,"Zone":"Sterre","Adres":"Kortrijksesteenweg 243","Eigenaar_naam":"Van Cleemput Hilde","Eigenaar_telefoon":"0486 28 67 62","Eigenaar_email":"hildevancleemput@telenet.be","Kamers":null,"Min_prijs":"300","Max_prijs":"300","Type":"Studio","Lat":"51.0390126","Long":"3.7161472999999887"},{"ID":256,"Zone":"Sterre","Adres":"Krijgslaan 199 - 215","Eigenaar_naam":"Bruylandt Antoine","Eigenaar_telefoon":"053\/80 11 52 of 0477 21 14 17","Eigenaar_email":"antoine.bruylandt@telenet.be","Kamers":null,"Min_prijs":"330","Max_prijs":"330","Type":"Studio","Lat":"51.0295783","Long":"3.7193551999999954"},{"ID":257,"Zone":"Sterre","Adres":"Maaltebruggestraat 277","Eigenaar_naam":"Standaert Nicole","Eigenaar_telefoon":"09\/377 47 31","Eigenaar_email":"info@zelco.be","Kamers":"4","Min_prijs":"280","Max_prijs":"280","Type":"Studio","Lat":"51.0265539","Long":"3.707698700000037"},{"ID":258,"Zone":"Sterre","Adres":"Maaltebruggestraat 279","Eigenaar_naam":"Ardeel Marc","Eigenaar_telefoon":"050 71 51 06 of 0475 39 36 85","Eigenaar_email":"ardeel.marc@telenet.be","Kamers":"6","Min_prijs":"290","Max_prijs":"290","Type":"Studio","Lat":"51.0264477","Long":"3.7076285000000553"},{"ID":259,"Zone":"Sterre","Adres":"Tuinwijklaan 2 - 8","Eigenaar_naam":"Berquin C","Eigenaar_telefoon":"0495 22 65 11","Eigenaar_email":"","Kamers":"6","Min_prijs":"270","Max_prijs":"270","Type":"Studio","Lat":"51.03227949999999","Long":"3.7116582999999537"},{"ID":260,"Zone":"UZ","Adres":"Elfjulistraat 95 - 97","Eigenaar_naam":"Vermeulen Gody","Eigenaar_telefoon":"0496\/23 40 71","Eigenaar_email":"gody.deschodt@telenet.be","Kamers":null,"Min_prijs":"660","Max_prijs":"660","Type":"Appartement","Lat":"51.029065","Long":"3.722086300000001"},{"ID":261,"Zone":"UZ","Adres":"Muilaardstraat 142","Eigenaar_naam":"Vercauteren","Eigenaar_telefoon":"0498 18 07 86","Eigenaar_email":"verdilo@skynet.be","Kamers":null,"Min_prijs":"385","Max_prijs":"385","Type":"Appartement","Lat":"51.0172323","Long":"3.7272550000000138"},{"ID":262,"Zone":"UZ","Adres":"Opvoedingstraat 47","Eigenaar_naam":"Lafaut Guido","Eigenaar_telefoon":"051 46 52 25 of 0474 27 81 80","Eigenaar_email":"guido.lafaut@skynet.be","Kamers":null,"Min_prijs":"660","Max_prijs":"660","Type":"Appartement","Lat":"51.0289323","Long":"3.7229638000000023"},{"ID":263,"Zone":"UZ","Adres":"Armand Heinsstraat 61","Eigenaar_naam":"Lagast Frank","Eigenaar_telefoon":"0495 57 08 16","Eigenaar_email":"steven.lagast@telenet.be","Kamers":"6","Min_prijs":"280","Max_prijs":"280","Type":"Kamer","Lat":"51.0271683","Long":"3.7312458000000106"},{"ID":264,"Zone":"UZ","Adres":"De Pintelaan 79","Eigenaar_naam":"Van Damme\/ Depuydt","Eigenaar_telefoon":"09 324 39 02 of 0485\/429985 of 0484\/083658","Eigenaar_email":"hetkot79@gmail.com","Kamers":null,"Min_prijs":"275","Max_prijs":"275","Type":"Kamer","Lat":"51.0300447","Long":"3.7289610000000266"},{"ID":265,"Zone":"UZ","Adres":"Elfjulistraat 146 - 150","Eigenaar_naam":"Heymans Stefaan","Eigenaar_telefoon":"09\/220 84 67 en 0474\/85 86 89","Eigenaar_email":"heymans.stefaan@telenet.be","Kamers":"10","Min_prijs":"275","Max_prijs":"275","Type":"Kamer","Lat":"51.0285778","Long":"3.7217259999999897"},{"ID":266,"Zone":"UZ","Adres":"Elfjulistraat 19","Eigenaar_naam":"Marchand Wim","Eigenaar_telefoon":"0498 51 22 45","Eigenaar_email":"marchand.adriaen@skynet.be","Kamers":"6","Min_prijs":"265","Max_prijs":"265","Type":"Kamer","Lat":"51.0284631","Long":"3.7192732999999407"},{"ID":267,"Zone":"UZ","Adres":"Elfjulistraat 95 - 97","Eigenaar_naam":"Vermeulen Gody","Eigenaar_telefoon":"0496\/23 40 71","Eigenaar_email":"gody.deschodt@telenet.be","Kamers":"9","Min_prijs":"390","Max_prijs":"390","Type":"Kamer","Lat":"51.029065","Long":"3.722086300000001"},{"ID":268,"Zone":"UZ","Adres":"Frank Baurstraat 36","Eigenaar_naam":"Pieteraerents W.","Eigenaar_telefoon":"055\/45 52 88 of 0473\/52 42 45","Eigenaar_email":"pieteradi@yahoo.co.uk","Kamers":"4","Min_prijs":"240","Max_prijs":"240","Type":"Kamer","Lat":"51.027335","Long":"3.728683300000057"},{"ID":269,"Zone":"UZ","Adres":"Galglaan 123","Eigenaar_naam":"Laconte Nathalie","Eigenaar_telefoon":"0484 90 76 50","Eigenaar_email":"nathalielaconte@gmail.com","Kamers":null,"Min_prijs":"230","Max_prijs":"230","Type":"Kamer","Lat":"51.0264854","Long":"3.720510699999977"},{"ID":270,"Zone":"UZ","Adres":"Ottergemsesteenweg 348","Eigenaar_naam":"Vergauwen-Sonck","Eigenaar_telefoon":"03 777 10 55","Eigenaar_email":"vergauwensonck@hotmail.com","Kamers":"6","Min_prijs":"260","Max_prijs":"260","Type":"Kamer","Lat":"51.0281217","Long":"3.7323977999999443"},{"ID":271,"Zone":"UZ","Adres":"Valkeniersstraat 31","Eigenaar_naam":"Vermeulen Laurette","Eigenaar_telefoon":"09\/385 61 99 - 0478\/219 349","Eigenaar_email":"laurettevermeulen@skynet.be","Kamers":"6","Min_prijs":"250","Max_prijs":"250","Type":"Kamer","Lat":"51.0298923","Long":"3.728476099999966"},{"ID":272,"Zone":"UZ","Adres":"Zwijnaardsesteenweg 320","Eigenaar_naam":"Balcaen Antonella","Eigenaar_telefoon":"0474 67 38 21","Eigenaar_email":"l_a@telenet.be","Kamers":"43","Min_prijs":"250","Max_prijs":"250","Type":"Kamer","Lat":"51.0283762","Long":"3.722269399999959"},{"ID":273,"Zone":"UZ","Adres":"Zwijnaardsesteenweg 500","Eigenaar_naam":"Callewaert Chris","Eigenaar_telefoon":"0476 44 44 32","Eigenaar_email":"Chris.Callewaert@gmail.com","Kamers":"6","Min_prijs":"350","Max_prijs":"350","Type":"Kamer","Lat":"51.0260342","Long":"3.7216889999999694"},{"ID":274,"Zone":"UZ","Adres":"De Pintelaan 11","Eigenaar_naam":"Peter Bouvry","Eigenaar_telefoon":"0479 929 996","Eigenaar_email":"pbouvry@hotmail.com","Kamers":null,"Min_prijs":"495","Max_prijs":"495","Type":"Studio","Lat":"51.0299041","Long":"3.7286254000000554"},{"ID":275,"Zone":"UZ","Adres":"De Pintelaan 79","Eigenaar_naam":"Van Damme\/ Depuydt","Eigenaar_telefoon":"09 324 39 02 of 0485\/429985 of 0484\/083658","Eigenaar_email":"hetkot79@gmail.com","Kamers":null,"Min_prijs":"325","Max_prijs":"325","Type":"Studio","Lat":"51.0300447","Long":"3.7289610000000266"},{"ID":276,"Zone":"UZ","Adres":"Diksmuidestraat 29 Bus B","Eigenaar_naam":"Acke Renaat","Eigenaar_telefoon":"0474 26 76 67","Eigenaar_email":"renaat.acke@scarlet.be","Kamers":"8","Min_prijs":"400","Max_prijs":"400","Type":"Studio","Lat":"51.0315193","Long":"3.7214102000000366"},{"ID":277,"Zone":"UZ","Adres":"Elfjulistraat 158 - 182","Eigenaar_naam":"Balcaen Antonella","Eigenaar_telefoon":"0474 67 38 21","Eigenaar_email":"l_a@telenet.be","Kamers":"13","Min_prijs":"395","Max_prijs":"395","Type":"Studio","Lat":"51.0286614","Long":"3.721884300000056"},{"ID":278,"Zone":"UZ","Adres":"Elfjulistraat 95 - 97","Eigenaar_naam":"Vermeulen Gody","Eigenaar_telefoon":"0496\/23 40 71","Eigenaar_email":"gody.deschodt@telenet.be","Kamers":null,"Min_prijs":"395","Max_prijs":"395","Type":"Studio","Lat":"51.029065","Long":"3.722086300000001"},{"ID":279,"Zone":"UZ","Adres":"Galglaan 129 - 131","Eigenaar_naam":"De Meulemeester Emanuel","Eigenaar_telefoon":"0477 89 82 14 of 0477 38 44 88","Eigenaar_email":"demeulemeester.emmanuel@skynet.be","Kamers":"3","Min_prijs":"340","Max_prijs":"340","Type":"Studio","Lat":"51.0264538","Long":"3.720530999999937"},{"ID":280,"Zone":"UZ","Adres":"Kikvorsstraat 10","Eigenaar_naam":"Tyvaert Gilbert","Eigenaar_telefoon":"0474 98 67 90","Eigenaar_email":"albertinekruishoutem@hotmail.com","Kamers":"6","Min_prijs":"275","Max_prijs":"275","Type":"Studio","Lat":"51.0241725","Long":"3.7202815000000555"},{"ID":281,"Zone":"UZ","Adres":"Muilaardstraat 112","Eigenaar_naam":"De Coster Greet","Eigenaar_telefoon":"09 355 99 60 of 0485 18 07 86","Eigenaar_email":"verdilo@skynet.be","Kamers":"31","Min_prijs":"288","Max_prijs":"288","Type":"Studio","Lat":"51.0175551","Long":"3.726519899999971"},{"ID":282,"Zone":"UZ","Adres":"Noendries 61 Bus C","Eigenaar_naam":"Phariseau Leen","Eigenaar_telefoon":"0477 36 46 95","Eigenaar_email":"leen.phariseau@skynet.be","Kamers":null,"Min_prijs":"450","Max_prijs":"450","Type":"Studio","Lat":"51.0287905","Long":"3.7314945000000534"},{"ID":283,"Zone":"UZ","Adres":"Opvoedingstraat 47","Eigenaar_naam":"Lafaut Guido","Eigenaar_telefoon":"051 46 52 25 of 0474 27 81 80","Eigenaar_email":"guido.lafaut@skynet.be","Kamers":null,"Min_prijs":"470","Max_prijs":"470","Type":"Studio","Lat":"51.0289323","Long":"3.7229638000000023"},{"ID":284,"Zone":"UZ","Adres":"Zwijnaardsesteenweg 572 - 582","Eigenaar_naam":"CV Gent Eurimmo","Eigenaar_telefoon":"09 221 31 12","Eigenaar_email":"info@eurimmo.be","Kamers":null,"Min_prijs":"365","Max_prijs":"365","Type":"Studio","Lat":"51.0242109","Long":"3.72059349999995"},{"ID":285,"Zone":"Zuid","Adres":"Leeuwstraat 3U","Eigenaar_naam":"Zwaenepoel Pol","Eigenaar_telefoon":"0486 23 55 39","Eigenaar_email":"zwaenepoel.pol@telenet.be","Kamers":null,"Min_prijs":"550","Max_prijs":"550","Type":"Appartement","Lat":"51.0414585","Long":"3.731710700000008"},{"ID":286,"Zone":"Zuid","Adres":"Zebrastraat 32 Bus 001","Eigenaar_naam":"Van Boven Mieke","Eigenaar_telefoon":"02\/641 00 12","Eigenaar_email":"mvb@bvdmc.com","Kamers":null,"Min_prijs":"600","Max_prijs":"1200","Type":"Appartement","Lat":"51.0403532","Long":"3.7347136999999293"},{"ID":287,"Zone":"Zuid","Adres":"Brabantdam 96","Eigenaar_naam":"Raman Piet","Eigenaar_telefoon":"0468 111 747 tot 9\/7 van 9-31\/7: 0486 03 60 60","Eigenaar_email":"pietraman@hotmail.com","Kamers":null,"Min_prijs":"314","Max_prijs":"314","Type":"Kamer","Lat":"51.0498133","Long":"3.7314727000000403"},{"ID":288,"Zone":"Zuid","Adres":"Brusselsepoortstraat 131 - 133","Eigenaar_naam":"De Graeve","Eigenaar_telefoon":"09\/386 19 73","Eigenaar_email":"student@taccoen.be","Kamers":"12","Min_prijs":"245","Max_prijs":"245","Type":"Kamer","Lat":"51.0423572","Long":"3.739008799999965"},{"ID":289,"Zone":"Zuid","Adres":"Filips de Goedekaai 12","Eigenaar_naam":"Ceuterick Geert","Eigenaar_telefoon":"0476\/911 506  (tot 19.00hr)","Eigenaar_email":"ceuterick.gent@telenet.be (BIJ VOORKEUR)","Kamers":null,"Min_prijs":"275","Max_prijs":"275","Type":"Kamer","Lat":"51.0375252","Long":"3.7337344999999686"},{"ID":290,"Zone":"Zuid","Adres":"Filips de Goedekaai 5 - 11","Eigenaar_naam":"Ceuterick Geert","Eigenaar_telefoon":"0476\/911 506  (tot 19.00hr)","Eigenaar_email":"ceuterick.gent@telenet.be (BIJ VOORKEUR)","Kamers":null,"Min_prijs":"245","Max_prijs":"245","Type":"Kamer","Lat":"51.0377072","Long":"3.7340297000000646"},{"ID":291,"Zone":"Zuid","Adres":"Fran\u00e7ois Benardstraat 15","Eigenaar_naam":"De Schrijver Kathy","Eigenaar_telefoon":null,"Eigenaar_email":"kathy@osteopathie.eu","Kamers":null,"Min_prijs":"390","Max_prijs":"390","Type":"Kamer","Lat":"51.0416333","Long":"3.7303077999999914"},{"ID":292,"Zone":"Zuid","Adres":"Guldenspoorstraat 14","Eigenaar_naam":"NV Van Hulthem","Eigenaar_telefoon":"0475 25 18 86","Eigenaar_email":"info@kamerstudio.be","Kamers":"32","Min_prijs":"275","Max_prijs":"275","Type":"Kamer","Lat":"51.0452354","Long":"3.72926039999993"},{"ID":293,"Zone":"Zuid","Adres":"Guldenspoorstraat 6","Eigenaar_naam":"Muller Jan","Eigenaar_telefoon":"0496\/26 33 24","Eigenaar_email":"jan.muller.antiques@hotmail.com","Kamers":null,"Min_prijs":"315","Max_prijs":"315","Type":"Kamer","Lat":"51.0451868","Long":"3.729076999999961"},{"ID":294,"Zone":"Zuid","Adres":"Hofstraat 70","Eigenaar_naam":"Maenhout Walter","Eigenaar_telefoon":"0472 52 59 00 of 09 373 64 24","Eigenaar_email":"walter.maenhout@skynet.be","Kamers":"8","Min_prijs":"250","Max_prijs":"250","Type":"Kamer","Lat":"51.0439902","Long":"3.7310296000000562"},{"ID":295,"Zone":"Zuid","Adres":"Karel de Stoutestraat 33","Eigenaar_naam":"CV Gent Eurimmo - De Wulf An","Eigenaar_telefoon":"09 221 31 12","Eigenaar_email":"info@eurimmo.be","Kamers":"6","Min_prijs":"365","Max_prijs":"365","Type":"Kamer","Lat":"51.0374213","Long":"3.7322699000000057"},{"ID":296,"Zone":"Zuid","Adres":"Keizervest 9 - 11","Eigenaar_naam":"De Bleecker Nico","Eigenaar_telefoon":"0496 40 41 66","Eigenaar_email":"ndb180246@hotmail.com","Kamers":"10","Min_prijs":"240","Max_prijs":"440","Type":"Kamer","Lat":"51.0418737","Long":"3.7399038999999448"},{"ID":297,"Zone":"Zuid","Adres":"Krevelstraat 29","Eigenaar_naam":"Ceuterick Geert","Eigenaar_telefoon":"0476 911 506 (tot 19u)","Eigenaar_email":"ceuterick.gent@telenet.be (BIJ VOORKEUR)","Kamers":"16","Min_prijs":"275","Max_prijs":"275","Type":"Kamer","Lat":"51.0420184","Long":"3.737919799999986"},{"ID":298,"Zone":"Zuid","Adres":"Krevelstraat 31","Eigenaar_naam":"Ceuterick Geert","Eigenaar_telefoon":"0476\/911 506 (tot 19.00hr)","Eigenaar_email":"ceuterick.gent@telenet.be (BIJ VOORKEUR)","Kamers":"6","Min_prijs":"250","Max_prijs":"250","Type":"Kamer","Lat":"51.04200119999999","Long":"3.7378585999999814"},{"ID":299,"Zone":"Zuid","Adres":"Krevelstraat 33","Eigenaar_naam":"Ceuterick Geert","Eigenaar_telefoon":"0476\/911 506 (tot 19.00hr)","Eigenaar_email":"ceuterick.gent@telenet.be (BIJ VOORKEUR)","Kamers":"6","Min_prijs":"260","Max_prijs":"260","Type":"Kamer","Lat":"51.041984","Long":"3.7377973999999767"},{"ID":300,"Zone":"Zuid","Adres":"Krevelstraat 47","Eigenaar_naam":"Ceuterick Geert","Eigenaar_telefoon":"0476\/911 506 (tot 19.00hr)","Eigenaar_email":"ceuterick.gent@telenet.be (BIJ VOORKEUR)","Kamers":"6","Min_prijs":"275","Max_prijs":"275","Type":"Kamer","Lat":"51.0418604","Long":"3.7373589999999695"},{"ID":301,"Zone":"Zuid","Adres":"Krevelstraat 67","Eigenaar_naam":"Vulsteke Carl","Eigenaar_telefoon":"051\/72 59 84 of 0494\/63 13 47","Eigenaar_email":"carlvulsteke@hotmail.com","Kamers":"6","Min_prijs":"220","Max_prijs":"220","Type":"Kamer","Lat":"51.0416884","Long":"3.73649869999997"},{"ID":302,"Zone":"Zuid","Adres":"Kruitmagazijnstraat 3","Eigenaar_naam":"Ceuterick Geert","Eigenaar_telefoon":"0476\/911 506 (tot 19.00hr)","Eigenaar_email":"ceuterick.gent@telenet.be (BIJ VOORKEUR)","Kamers":"11","Min_prijs":"275","Max_prijs":"275","Type":"Kamer","Lat":"51.0382122","Long":"3.733737099999985"},{"ID":303,"Zone":"Zuid","Adres":"Maria van Boergondi\u00ebstraat 2 Bus 4","Eigenaar_naam":"CV Gent Eurimmo","Eigenaar_telefoon":"09 221 31 12","Eigenaar_email":"info@eurimmo.be","Kamers":"8","Min_prijs":"375","Max_prijs":"375","Type":"Kamer","Lat":"51.0382724","Long":"3.7330378000000337"},{"ID":304,"Zone":"Zuid","Adres":"Muinkkaai 31","Eigenaar_naam":"Vincent Ingrid","Eigenaar_telefoon":"0495 22 65 11","Eigenaar_email":"comptoir7@skynet.be","Kamers":"13","Min_prijs":"300","Max_prijs":"300","Type":"Kamer","Lat":"51.0454057","Long":"3.728800099999944"},{"ID":305,"Zone":"Zuid","Adres":"Muinkkaai 33","Eigenaar_naam":"CV Gent Eurimmo","Eigenaar_telefoon":"09 221 31 12","Eigenaar_email":"info@eurimmo.be","Kamers":"13","Min_prijs":"405","Max_prijs":"405","Type":"Kamer","Lat":"51.0471738","Long":"3.7289581999999655"},{"ID":306,"Zone":"Zuid","Adres":"Pelikaanstraat 24","Eigenaar_naam":"Lammens Lieven","Eigenaar_telefoon":"09\/233 75 45 of 0476\/48 75 78","Eigenaar_email":"lieven.lammens@metastore.be","Kamers":"6","Min_prijs":"225","Max_prijs":"225","Type":"Kamer","Lat":"51.050908","Long":"3.7317332999999735"},{"ID":307,"Zone":"Zuid","Adres":"Sint-Lievenspoortstraat 15 Bus A","Eigenaar_naam":"Vleeschhouwers J.P.","Eigenaar_telefoon":"09 222 60 30 of 0479 78 66 68","Eigenaar_email":"jpvl@telenet.be","Kamers":"13","Min_prijs":"270","Max_prijs":"270","Type":"Kamer","Lat":"51.0434721","Long":"3.7362057000000277"},{"ID":308,"Zone":"Zuid","Adres":"Ter Platen 27","Eigenaar_naam":"De Baerdemaecker Steven","Eigenaar_telefoon":"0472\/506 261","Eigenaar_email":"st.debaerdemaecker@scarlet.be","Kamers":"8","Min_prijs":"350","Max_prijs":"350","Type":"Kamer","Lat":"51.0396289","Long":"3.729586599999948"},{"ID":309,"Zone":"Zuid","Adres":"Ter Platen 49","Eigenaar_naam":"Bekaert Antoine","Eigenaar_telefoon":"09\/282 41 28 (na 20u) of 0498\/278771","Eigenaar_email":"kamers@seghers.net","Kamers":"10","Min_prijs":"215","Max_prijs":"215","Type":"Kamer","Lat":"51.0386396","Long":"3.7301409000000376"},{"ID":310,"Zone":"Zuid","Adres":"Vijfwindgatenstraat 6","Eigenaar_naam":"Ceuterick Geert","Eigenaar_telefoon":"0476\/911 506 (tot 19.00hr)","Eigenaar_email":"ceuterick.gent@telenet.be (BIJ VOORKEUR)","Kamers":null,"Min_prijs":"270","Max_prijs":"270","Type":"Kamer","Lat":"51.0449116","Long":"3.735491599999932"},{"ID":311,"Zone":"Zuid","Adres":"Brabantdam 88 - 90","Eigenaar_naam":"Vanlimburg Chris","Eigenaar_telefoon":"0475 43 51 78","Eigenaar_email":"chris.vanlimburg@telenet.be","Kamers":"9","Min_prijs":"350","Max_prijs":"600","Type":"Studio","Lat":"51.04987570000001","Long":"3.7311701999999514"},{"ID":312,"Zone":"Zuid","Adres":"Brabantdam 96","Eigenaar_naam":"Raman Piet","Eigenaar_telefoon":"0468 111 747 tot 9\/7 van 9-31\/7: 0486 03 60 60","Eigenaar_email":"pietraman@hotmail.com","Kamers":"9","Min_prijs":"495","Max_prijs":"495","Type":"Studio","Lat":"51.0498133","Long":"3.7314727000000403"},{"ID":313,"Zone":"Zuid","Adres":"Filips de Goedekaai 12","Eigenaar_naam":"Ceuterick Geert","Eigenaar_telefoon":"0476\/911 506  (tot 19.00hr)","Eigenaar_email":"ceuterick.gent@telenet.be (BIJ VOORKEUR)","Kamers":null,"Min_prijs":"325","Max_prijs":"325","Type":"Studio","Lat":"51.0375252","Long":"3.7337344999999686"},{"ID":314,"Zone":"Zuid","Adres":"Filips de Goedekaai 5 - 11","Eigenaar_naam":"Ceuterick Geert","Eigenaar_telefoon":"0476\/91 15 06  (tot 19.00hr)","Eigenaar_email":"ceuterick.gent@telenet.be (BIJ VOORKEUR)","Kamers":"8","Min_prijs":"405","Max_prijs":"425","Type":"Studio","Lat":"51.0377072","Long":"3.7340297000000646"},{"ID":315,"Zone":"Zuid","Adres":"Fran\u00e7ois Benardstraat 5","Eigenaar_naam":"Coart Guido","Eigenaar_telefoon":"011\/88 23 52 of 0486\/44 59 75","Eigenaar_email":"guido.coart@telenet.be","Kamers":"5","Min_prijs":"435","Max_prijs":"605","Type":"Studio","Lat":"51.0414957","Long":"3.729710100000034"},{"ID":316,"Zone":"Zuid","Adres":"Frans Ackermanstraat 22","Eigenaar_naam":"Maes Rik","Eigenaar_telefoon":"0479 222 314 of 0475 83 66 69","Eigenaar_email":"maes-rik@skynet.be","Kamers":null,"Min_prijs":"375","Max_prijs":"395","Type":"Studio","Lat":"51.0527929","Long":"3.73287849999997"},{"ID":317,"Zone":"Zuid","Adres":"Frans Ackermanstraat 22 Bus 1","Eigenaar_naam":"Van Der Fraenen","Eigenaar_telefoon":"0477 130 730","Eigenaar_email":"yves.vanderfraenen@gmail.com","Kamers":"133","Min_prijs":"345","Max_prijs":"345","Type":"Studio","Lat":"51.0527929","Long":"3.73287849999997"},{"ID":318,"Zone":"Zuid","Adres":"Frans Ackermanstraat 22","Eigenaar_naam":"Estia N.V. Janssens Maxime","Eigenaar_telefoon":"09 244 66 99","Eigenaar_email":"maxime.janssens@estia.be","Kamers":"133","Min_prijs":"315","Max_prijs":"315","Type":"Studio","Lat":"51.0527929","Long":"3.73287849999997"},{"ID":319,"Zone":"Zuid","Adres":"Guldenspoorstraat 6","Eigenaar_naam":"Muller Jan","Eigenaar_telefoon":"0496\/26 33 24","Eigenaar_email":"jan.muller.antiques@hotmail.com","Kamers":null,"Min_prijs":"380","Max_prijs":"380","Type":"Studio","Lat":"51.0451868","Long":"3.729076999999961"},{"ID":320,"Zone":"Zuid","Adres":"Hendrik Waelputstraat 12","Eigenaar_naam":"Van Lysebeth Ingrid","Eigenaar_telefoon":"0498\/23 67 01 en 09\/220 65 66","Eigenaar_email":"maxvandeneynden@telenet.be","Kamers":"6","Min_prijs":"300","Max_prijs":"300","Type":"Studio","Lat":"51.0432313","Long":"3.735811099999978"},{"ID":321,"Zone":"Zuid","Adres":"Keizervest 9 - 11","Eigenaar_naam":"De Bleecker Nico","Eigenaar_telefoon":"0496 40 41 66","Eigenaar_email":"ndb180246@hotmail.com","Kamers":"8","Min_prijs":"400","Max_prijs":"400","Type":"Studio","Lat":"51.0418737","Long":"3.7399038999999448"},{"ID":322,"Zone":"Zuid","Adres":"Lange Boomgaardstraat 20 - 24","Eigenaar_naam":"De Roe-Schmid","Eigenaar_telefoon":"055\/42 65 66 en 0485\/61 47 80","Eigenaar_email":"sigridschmid@deroe.be","Kamers":"8","Min_prijs":"495","Max_prijs":"495","Type":"Studio","Lat":"51.050862","Long":"3.730806600000051"},{"ID":323,"Zone":"Zuid","Adres":"Lange Violettestraat 78 - 80","Eigenaar_naam":"Senesael Hans","Eigenaar_telefoon":"058\/287738 of 0496\/40 47 44","Eigenaar_email":"familie_senesael@hotmail.com","Kamers":"4","Min_prijs":"350","Max_prijs":"350","Type":"Studio","Lat":"51.04705","Long":"3.734176400000024"},{"ID":324,"Zone":"Zuid","Adres":"Leeuwstraat 16 - 28","Eigenaar_naam":"Keppens Guido","Eigenaar_telefoon":"09 221 62 63 of 0475 57 13 78","Eigenaar_email":"","Kamers":null,"Min_prijs":"320","Max_prijs":"320","Type":"Studio","Lat":"51.0415608","Long":"3.7316447000000608"},{"ID":325,"Zone":"Zuid","Adres":"Muinkkaai 33","Eigenaar_naam":"CV Gent Eurimmo","Eigenaar_telefoon":"09 221 31 12","Eigenaar_email":"info@eurimmo.be","Kamers":"13","Min_prijs":"615","Max_prijs":"615","Type":"Studio","Lat":"51.0471738","Long":"3.7289581999999655"},{"ID":326,"Zone":"Zuid","Adres":"Sint-Lievenspoortstraat 15 Bus A","Eigenaar_naam":"Vleeschhouwers J.P.","Eigenaar_telefoon":"09 222 60 30 of 0479 78 66 68","Eigenaar_email":"jpvl@telenet.be","Kamers":"13","Min_prijs":"345","Max_prijs":"345","Type":"Studio","Lat":"51.0434721","Long":"3.7362057000000277"},{"ID":327,"Zone":"Zuid","Adres":"Tentoonstellingslaan 26","Eigenaar_naam":"Van Hulle Simone","Eigenaar_telefoon":"0478 54 00 07","Eigenaar_email":"chrisverheye@telenet.be","Kamers":"11","Min_prijs":"400","Max_prijs":"400","Type":"Studio","Lat":"51.0408336","Long":"3.7331082000000606"},{"ID":328,"Zone":"Zuid","Adres":"Zebrastraat 214","Eigenaar_naam":"Bossuyt Marie","Eigenaar_telefoon":"0475\/613 942","Eigenaar_email":"","Kamers":"3","Min_prijs":"390","Max_prijs":"400","Type":"Studio","Lat":"51.0403373","Long":"3.7343316999999843"}]}